{"type":"FeatureCollection","features":[{"type":"Feature","id":1,"geometry":{"type":"Point","coordinates":[-105.10999999999996,39.800000000000068]},"properties":{"OBJECTID":1,"Brand":"Starbucks","Store_Number":"10720-100167","Store_Name":"58th & Kipling- Arvada","Ownership_Type":"Company Owned","Street_Address":"9901 W 58th Ave","City":"Arvada","State_Province":"CO","Country":"US","Postcode":"800022013","Phone_Number":"303-422-0527","Timezone":"GMT-07:00 America/Denver","Longitude":-105.11,"Latitude":39.799999999999997}},{"type":"Feature","id":2,"geometry":{"type":"Point","coordinates":[-105.07999999999998,39.82000000000005]},"properties":{"OBJECTID":2,"Brand":"Starbucks","Store_Number":"8757-93212","Store_Name":"66th & Wadsworth-Arvada","Ownership_Type":"Company Owned","Street_Address":"6600 W Wadsworth Blvd","City":"Arvada","State_Province":"CO","Country":"US","Postcode":"800033946","Phone_Number":"303-425-4724","Timezone":"GMT-07:00 America/Denver","Longitude":-105.08,"Latitude":39.82}},{"type":"Feature","id":3,"geometry":{"type":"Point","coordinates":[-105.07999999999998,39.840000000000032]},"properties":{"OBJECTID":3,"Brand":"Starbucks","Store_Number":"74291-75247","Store_Name":"Safeway-Arvada #1998","Ownership_Type":"Licensed","Street_Address":"7561 W 80th Ave","City":"Arvada","State_Province":"CO","Country":"US","Postcode":"800032113","Phone_Number":"303-420-0318","Timezone":"GMT-07:00 America/Denver","Longitude":-105.08,"Latitude":39.840000000000003}},{"type":"Feature","id":4,"geometry":{"type":"Point","coordinates":[-105.07999999999998,39.800000000000068]},"properties":{"OBJECTID":4,"Brand":"Starbucks","Store_Number":"5399-897","Store_Name":"55th & Wadsworth","Ownership_Type":"Company Owned","Street_Address":"5545 Wadsworth By-Pass, Unit #A","City":"Arvada","State_Province":"CO","Country":"US","Postcode":"80007","Phone_Number":"(303) 940-9159","Timezone":"GMT-07:00 America/Denver","Longitude":-105.08,"Latitude":39.799999999999997}},{"type":"Feature","id":5,"geometry":{"type":"Point","coordinates":[-105.07999999999998,39.840000000000032]},"properties":{"OBJECTID":5,"Brand":"Starbucks","Store_Number":"16635-173425","Store_Name":"King Soopers-Arvada, CO #36","Ownership_Type":"Licensed","Street_Address":"8031 Wadsworth Blvd, Market Square","City":"Arvada","State_Province":"CO","Country":"US","Postcode":"800031645","Phone_Number":"303-420-4611","Timezone":"GMT-07:00 America/Denver","Longitude":-105.08,"Latitude":39.840000000000003}},{"type":"Feature","id":6,"geometry":{"type":"Point","coordinates":[-105.07999999999998,39.840000000000032]},"properties":{"OBJECTID":6,"Brand":"Starbucks","Store_Number":"5293-808","Store_Name":"80th & Wadsworth","Ownership_Type":"Company Owned","Street_Address":"8071 Wadsworth Blvd.","City":"Arvada","State_Province":"CO","Country":"US","Postcode":"800031646","Phone_Number":"(303) 432-8187","Timezone":"GMT-07:00 America/Denver","Longitude":-105.08,"Latitude":39.840000000000003}},{"type":"Feature","id":7,"geometry":{"type":"Point","coordinates":[-105.16999999999996,39.810000000000059]},"properties":{"OBJECTID":7,"Brand":"Starbucks","Store_Number":"73931-102079","Store_Name":"King Soopers - Arvada #85","Ownership_Type":"Licensed","Street_Address":"15200 West 64th Ave","City":"Arvada","State_Province":"CO","Country":"US","Postcode":"800077510","Phone_Number":"720-898-4228","Timezone":"GMT-07:00 America/Denver","Longitude":-105.17,"Latitude":39.810000000000002}},{"type":"Feature","id":8,"geometry":{"type":"Point","coordinates":[-105.04999999999995,39.810000000000059]},"properties":{"OBJECTID":8,"Brand":"Starbucks","Store_Number":"16857-176084","Store_Name":"King Soopers-Arvada #3","Ownership_Type":"Licensed","Street_Address":"6350 Sheridan Blvd","City":"Arvada","State_Province":"CO","Country":"US","Postcode":"800036645","Phone_Number":"303-429-1597","Timezone":"GMT-07:00 America/Denver","Longitude":-105.05,"Latitude":39.810000000000002}},{"type":"Feature","id":9,"geometry":{"type":"Point","coordinates":[-105.07999999999998,39.840000000000032]},"properties":{"OBJECTID":9,"Brand":"Starbucks","Store_Number":"76512-99423","Store_Name":"Target Arvada T-48","Ownership_Type":"Licensed","Street_Address":"7899 Wadsworth Blvd","City":"Arvada","State_Province":"CO","Country":"US","Postcode":"800032107","Phone_Number":"303-425-0124","Timezone":"GMT-07:00 America/Denver","Longitude":-105.08,"Latitude":39.840000000000003}},{"type":"Feature","id":10,"geometry":{"type":"Point","coordinates":[-104.75999999999999,39.61000000000007]},"properties":{"OBJECTID":10,"Brand":"Starbucks","Store_Number":"5283-284","Store_Name":"Smoky & Himalaya","Ownership_Type":"Company Owned","Street_Address":"19751-A Smoky Hill Road","City":"Aurora","State_Province":"CO","Country":"US","Postcode":"800155191","Phone_Number":"(303) 699-5521","Timezone":"GMT-07:00 America/Denver","Longitude":-104.76000000000001,"Latitude":39.609999999999999}},{"type":"Feature","id":11,"geometry":{"type":"Point","coordinates":[-104.79999999999995,39.60000000000008]},"properties":{"OBJECTID":11,"Brand":"Starbucks","Store_Number":"73961-82268","Store_Name":"King Soopers-Aurora #84","Ownership_Type":"Licensed","Street_Address":"6412 S Parker Rd","City":"Aurora","State_Province":"CO","Country":"US","Postcode":"800163011","Phone_Number":"303-627-6060","Timezone":"GMT-07:00 America/Denver","Longitude":-104.8,"Latitude":39.600000000000001}},{"type":"Feature","id":12,"geometry":{"type":"Point","coordinates":[-104.82999999999998,39.700000000000045]},"properties":{"OBJECTID":12,"Brand":"Starbucks","Store_Number":"24213-180506","Store_Name":"Mississippi & Abilene, Aurora","Ownership_Type":"Company Owned","Street_Address":"13881 E Mississippi Ave","City":"Aurora","State_Province":"CO","Country":"US","Postcode":"80012","Phone_Number":"7208996364","Timezone":"GMT-07:00 America/Denver","Longitude":-104.83,"Latitude":39.700000000000003}},{"type":"Feature","id":13,"geometry":{"type":"Point","coordinates":[-104.86999999999995,39.690000000000055]},"properties":{"OBJECTID":13,"Brand":"Starbucks","Store_Number":"74351-83241","Store_Name":"Safeway-Aurora #2612","Ownership_Type":"Licensed","Street_Address":"1677 S Havana","City":"Aurora","State_Province":"CO","Country":"US","Postcode":"800125007","Phone_Number":"303-481-2279","Timezone":"GMT-07:00 America/Denver","Longitude":-104.87,"Latitude":39.689999999999998}},{"type":"Feature","id":14,"geometry":{"type":"Point","coordinates":[-104.84999999999997,39.700000000000045]},"properties":{"OBJECTID":14,"Brand":"Starbucks","Store_Number":"79569-107097","Store_Name":"Safeway #137 - Aurora","Ownership_Type":"Licensed","Street_Address":"12200 E. Mississippi Ave","City":"Aurora","State_Province":"CO","Country":"US","Postcode":"800123454","Phone_Number":"303-751-6603","Timezone":"GMT-07:00 America/Denver","Longitude":-104.84999999999999,"Latitude":39.700000000000003}},{"type":"Feature","id":15,"geometry":{"type":"Point","coordinates":[-104.86999999999995,39.670000000000073]},"properties":{"OBJECTID":15,"Brand":"Starbucks","Store_Number":"14072-107931","Store_Name":"Parker & Iliff, Aurora","Ownership_Type":"Company Owned","Street_Address":"2300 S. Parker Rd, A","City":"Aurora","State_Province":"CO","Country":"US","Postcode":"802315923","Phone_Number":"303 695-5239","Timezone":"GMT-07:00 America/Denver","Longitude":-104.87,"Latitude":39.670000000000002}},{"type":"Feature","id":16,"geometry":{"type":"Point","coordinates":[-104.78999999999996,39.690000000000055]},"properties":{"OBJECTID":16,"Brand":"Starbucks","Store_Number":"10856-101379","Store_Name":"Mississippi and Buckley","Ownership_Type":"Company Owned","Street_Address":"1240 S Buckely Rd","City":"Aurora","State_Province":"CO","Country":"US","Postcode":"800174150","Phone_Number":"303-337-2940","Timezone":"GMT-07:00 America/Denver","Longitude":-104.79000000000001,"Latitude":39.689999999999998}},{"type":"Feature","id":17,"geometry":{"type":"Point","coordinates":[-104.71999999999997,39.580000000000041]},"properties":{"OBJECTID":17,"Brand":"Starbucks","Store_Number":"10632-98426","Store_Name":"E-470 & Gartrell- Aurora","Ownership_Type":"Company Owned","Street_Address":"7500 S. Gartrell Rd., Suite 101","City":"Aurora","State_Province":"CO","Country":"US","Postcode":"800164237","Phone_Number":"303-690-1104","Timezone":"GMT-07:00 America/Denver","Longitude":-104.72,"Latitude":39.579999999999998}},{"type":"Feature","id":18,"geometry":{"type":"Point","coordinates":[-104.85999999999996,39.710000000000036]},"properties":{"OBJECTID":18,"Brand":"Starbucks","Store_Number":"11246-103076","Store_Name":"Alameda & Ironton","Ownership_Type":"Company Owned","Street_Address":"10761 E Alameda","City":"Aurora","State_Province":"CO","Country":"US","Postcode":"800121035","Phone_Number":"303-340-5691","Timezone":"GMT-07:00 America/Denver","Longitude":-104.86,"Latitude":39.710000000000001}},{"type":"Feature","id":19,"geometry":{"type":"Point","coordinates":[-104.81999999999999,39.710000000000036]},"properties":{"OBJECTID":19,"Brand":"Starbucks","Store_Number":"6821-79460","Store_Name":"I-225 & Alameda-Aurora","Ownership_Type":"Company Owned","Street_Address":"14261 East Cedar Avenue, D","City":"Aurora","State_Province":"CO","Country":"US","Postcode":"800121430","Phone_Number":"303-340-8370","Timezone":"GMT-07:00 America/Denver","Longitude":-104.81999999999999,"Latitude":39.710000000000001}},{"type":"Feature","id":20,"geometry":{"type":"Point","coordinates":[-104.76999999999998,39.650000000000034]},"properties":{"OBJECTID":20,"Brand":"Starbucks","Store_Number":"9600-97687","Store_Name":"Hampden Ave & Tower- Aurora","Ownership_Type":"Company Owned","Street_Address":"3551 South Tower Rd, Unit A","City":"Aurora","State_Province":"CO","Country":"US","Postcode":"800133564","Phone_Number":"3036801137","Timezone":"GMT-07:00 America/Denver","Longitude":-104.77,"Latitude":39.649999999999999}},{"type":"Feature","id":21,"geometry":{"type":"Point","coordinates":[-104.68999999999994,39.590000000000032]},"properties":{"OBJECTID":21,"Brand":"Starbucks","Store_Number":"19889-91824","Store_Name":"King Soopers-Aurora #107","Ownership_Type":"Licensed","Street_Address":"25701 E Smoky Hill Rd","City":"Aurora","State_Province":"CO","Country":"US","Postcode":"80016","Phone_Number":"303-615-2855","Timezone":"GMT-07:00 America/Denver","Longitude":-104.69,"Latitude":39.590000000000003}},{"type":"Feature","id":22,"geometry":{"type":"Point","coordinates":[-104.80999999999995,39.630000000000052]},"properties":{"OBJECTID":22,"Brand":"Starbucks","Store_Number":"6881-84781","Store_Name":"Chambers & Smoky Hill-Aurora","Ownership_Type":"Company Owned","Street_Address":"15285 Smoky Hill Rd","City":"Aurora","State_Province":"CO","Country":"US","Postcode":"800151208","Phone_Number":"303-680-0820","Timezone":"GMT-07:00 America/Denver","Longitude":-104.81,"Latitude":39.630000000000003}},{"type":"Feature","id":23,"geometry":{"type":"Point","coordinates":[-104.77999999999997,39.650000000000034]},"properties":{"OBJECTID":23,"Brand":"Starbucks","Store_Number":"19362-200884","Store_Name":"King Soopers - #128 Aurora","Ownership_Type":"Licensed","Street_Address":"18211 E. Hampden Avenue","City":"Aurora","State_Province":"CO","Country":"US","Postcode":"80013","Phone_Number":"303-627-3300","Timezone":"GMT-07:00 America/Denver","Longitude":-104.78,"Latitude":39.649999999999999}},{"type":"Feature","id":24,"geometry":{"type":"Point","coordinates":[-104.71999999999997,39.57000000000005]},"properties":{"OBJECTID":24,"Brand":"Starbucks","Store_Number":"76305-96656","Store_Name":"Super Target Aurora ST-1976","Ownership_Type":"Licensed","Street_Address":"7400 S Gartrell Rd, Gardens in Havana","City":"Aurora","State_Province":"CO","Country":"US","Postcode":"800164236","Phone_Number":"303-209-2827","Timezone":"GMT-07:00 America/Denver","Longitude":-104.72,"Latitude":39.57}},{"type":"Feature","id":25,"geometry":{"type":"Point","coordinates":[-104.86999999999995,39.690000000000055]},"properties":{"OBJECTID":25,"Brand":"Starbucks","Store_Number":"5294-175247","Store_Name":"Mississippi & Havana, Aurora","Ownership_Type":"Company Owned","Street_Address":"1402 S. Havana St., Chambers Plaza","City":"Aurora","State_Province":"CO","Country":"US","Postcode":"80012","Phone_Number":"3036710153","Timezone":"GMT-07:00 America/Denver","Longitude":-104.87,"Latitude":39.689999999999998}},{"type":"Feature","id":26,"geometry":{"type":"Point","coordinates":[-104.80999999999995,39.740000000000066]},"properties":{"OBJECTID":26,"Brand":"Starbucks","Store_Number":"6878-86840","Store_Name":"Colfax & Chambers-Aurora","Ownership_Type":"Company Owned","Street_Address":"15261 E Colfax Ave","City":"Aurora","State_Province":"CO","Country":"US","Postcode":"800115730","Phone_Number":"303-340-3403","Timezone":"GMT-07:00 America/Denver","Longitude":-104.81,"Latitude":39.740000000000002}},{"type":"Feature","id":27,"geometry":{"type":"Point","coordinates":[-104.81999999999999,39.720000000000027]},"properties":{"OBJECTID":27,"Brand":"Starbucks","Store_Number":"72689-76604","Store_Name":"Super Target Aurora ST-1471","Ownership_Type":"Licensed","Street_Address":"14200 E Ellsworth Ave","City":"Aurora","State_Province":"CO","Country":"US","Postcode":"800121402","Phone_Number":"303-214-0114","Timezone":"GMT-07:00 America/Denver","Longitude":-104.81999999999999,"Latitude":39.719999999999999}},{"type":"Feature","id":28,"geometry":{"type":"Point","coordinates":[-104.84999999999997,39.660000000000025]},"properties":{"OBJECTID":28,"Brand":"Starbucks","Store_Number":"10114-93216","Store_Name":"Parker & Peoria-Aurora","Ownership_Type":"Company Owned","Street_Address":"3128 S. Parker Road","City":"Aurora","State_Province":"CO","Country":"US","Postcode":"800143110","Phone_Number":"303-306-2328","Timezone":"GMT-07:00 America/Denver","Longitude":-104.84999999999999,"Latitude":39.659999999999997}},{"type":"Feature","id":29,"geometry":{"type":"Point","coordinates":[-104.82999999999998,39.640000000000043]},"properties":{"OBJECTID":29,"Brand":"Starbucks","Store_Number":"21242-210247","Store_Name":"S. Parker Rd & E. Quincy Ave","Ownership_Type":"Company Owned","Street_Address":"13702 E Quincy Ave","City":"Aurora","State_Province":"CO","Country":"US","Postcode":"80015","Phone_Number":"3036806304","Timezone":"GMT-07:00 America/Denver","Longitude":-104.83,"Latitude":39.640000000000001}},{"type":"Feature","id":30,"geometry":{"type":"Point","coordinates":[-104.78999999999996,39.670000000000073]},"properties":{"OBJECTID":30,"Brand":"Starbucks","Store_Number":"6833-83644","Store_Name":"Iliff & Buckley","Ownership_Type":"Company Owned","Street_Address":"17200 E Iliff Ave, Unit A-1","City":"Aurora","State_Province":"CO","Country":"US","Postcode":"800135833","Phone_Number":"303-306-7620","Timezone":"GMT-07:00 America/Denver","Longitude":-104.79000000000001,"Latitude":39.670000000000002}},{"type":"Feature","id":31,"geometry":{"type":"Point","coordinates":[-104.71999999999997,39.60000000000008]},"properties":{"OBJECTID":31,"Brand":"Starbucks","Store_Number":"73605-87503","Store_Name":"Safeway - Aurora #899","Ownership_Type":"Licensed","Street_Address":"6100 S Gun Club Rd","City":"Aurora","State_Province":"CO","Country":"US","Postcode":"800165262","Phone_Number":"303-400-4870","Timezone":"GMT-07:00 America/Denver","Longitude":-104.72,"Latitude":39.600000000000001}},{"type":"Feature","id":32,"geometry":{"type":"Point","coordinates":[-104.77999999999997,39.650000000000034]},"properties":{"OBJECTID":32,"Brand":"Starbucks","Store_Number":"74263-51682","Store_Name":"Safeway-Aurora #1928","Ownership_Type":"Licensed","Street_Address":"18730 E Hampden Ave","City":"Aurora","State_Province":"CO","Country":"US","Postcode":"800133534","Phone_Number":"720-876-2244","Timezone":"GMT-07:00 America/Denver","Longitude":-104.78,"Latitude":39.649999999999999}},{"type":"Feature","id":33,"geometry":{"type":"Point","coordinates":[-104.66999999999996,39.590000000000032]},"properties":{"OBJECTID":33,"Brand":"Starbucks","Store_Number":"76981-136642","Store_Name":"Target Aurora South T-2458","Ownership_Type":"Licensed","Street_Address":"15700 E Briarwood Cir, Salida Shops","City":"Aurora","State_Province":"CO","Country":"US","Postcode":"800161558","Phone_Number":"303-594-5830","Timezone":"GMT-07:00 America/Denver","Longitude":-104.67,"Latitude":39.590000000000003}},{"type":"Feature","id":34,"geometry":{"type":"Point","coordinates":[-104.76999999999998,39.760000000000048]},"properties":{"OBJECTID":34,"Brand":"Starbucks","Store_Number":"10438-100760","Store_Name":"Tower & I-70- Aurora","Ownership_Type":"Company Owned","Street_Address":"3455 N Salida St, A","City":"Aurora","State_Province":"CO","Country":"US","Postcode":"800115009","Phone_Number":"303-371-3594","Timezone":"GMT-07:00 America/Denver","Longitude":-104.77,"Latitude":39.759999999999998}},{"type":"Feature","id":35,"geometry":{"type":"Point","coordinates":[-104.42999999999995,39.770000000000039]},"properties":{"OBJECTID":35,"Brand":"Starbucks","Store_Number":"73797-86304","Store_Name":"King Soopers-Bennett #112","Ownership_Type":"Licensed","Street_Address":"1045 1st St.","City":"Bennett","State_Province":"CO","Country":"US","Postcode":"80102","Phone_Number":"303-778-3320","Timezone":"GMT-07:00 America/Denver","Longitude":-104.43000000000001,"Latitude":39.770000000000003}},{"type":"Feature","id":36,"geometry":{"type":"Point","coordinates":[-105.48999999999995,39.800000000000068]},"properties":{"OBJECTID":36,"Brand":"Starbucks","Store_Number":"75527-43499","Store_Name":"Ameristar Casino Resort Spa Black H","Ownership_Type":"Licensed","Street_Address":"15173 HWY 119, 29th Street Mall","City":"Blackhawk","State_Province":"CO","Country":"US","Postcode":"80422","Phone_Number":"720-946-4109","Timezone":"GMT-07:00 America/Denver","Longitude":-105.48999999999999,"Latitude":39.799999999999997}},{"type":"Feature","id":37,"geometry":{"type":"Point","coordinates":[-105.12999999999994,39.930000000000064]},"properties":{"OBJECTID":37,"Brand":"Starbucks","Store_Number":"10858-103224","Store_Name":"Flatiron Crossing","Ownership_Type":"Company Owned","Street_Address":"1 West Flatiron Circle, 2232, Flatiron Crossing Mall","City":"Broomfield","State_Province":"CO","Country":"US","Postcode":"800218881","Phone_Number":"303-466-8048","Timezone":"GMT-07:00 America/Denver","Longitude":-105.13,"Latitude":39.93}},{"type":"Feature","id":38,"geometry":{"type":"Point","coordinates":[-105.13999999999999,39.930000000000064]},"properties":{"OBJECTID":38,"Brand":"Teavana","Store_Number":"28201-249814","Store_Name":"Teavana - Flatiron Crossing Mall","Ownership_Type":"Company Owned","Street_Address":"1 W. FLATIRON CROSSING DR, #1192","City":"BROOMFIELD","State_Province":"CO","Country":"US","Postcode":"80021","Phone_Number":"303-410-7042","Timezone":"GMT-07:00 America/Denver","Longitude":-105.14,"Latitude":39.93}},{"type":"Feature","id":39,"geometry":{"type":"Point","coordinates":[-105.04999999999995,39.920000000000073]},"properties":{"OBJECTID":39,"Brand":"Starbucks","Store_Number":"6187-149664","Store_Name":"King Soopers-Broomfield, CO #86","Ownership_Type":"Licensed","Street_Address":"12167 Sheridan Blvd, Broomfield Marketplace","City":"Broomfield","State_Province":"CO","Country":"US","Postcode":"800202459","Phone_Number":"303-439-0113","Timezone":"GMT-07:00 America/Denver","Longitude":-105.05,"Latitude":39.920000000000002}},{"type":"Feature","id":40,"geometry":{"type":"Point","coordinates":[-105.08999999999997,39.930000000000064]},"properties":{"OBJECTID":40,"Brand":"Starbucks","Store_Number":"6834-82360","Store_Name":"Hwy 287 & Miramonte","Ownership_Type":"Company Owned","Street_Address":"1170 US Highway 287, D-400","City":"Broomfield","State_Province":"CO","Country":"US","Postcode":"80020","Phone_Number":"303-466-8642","Timezone":"GMT-07:00 America/Denver","Longitude":-105.09,"Latitude":39.93}},{"type":"Feature","id":41,"geometry":{"type":"Point","coordinates":[-105.00999999999999,39.940000000000055]},"properties":{"OBJECTID":41,"Brand":"Starbucks","Store_Number":"1542-129324","Store_Name":"King Soopers-Broomfield, CO #118","Ownership_Type":"Licensed","Street_Address":"2355 W 136th St","City":"Broomfield","State_Province":"CO","Country":"US","Postcode":"800239331","Phone_Number":"(303) 920-3010","Timezone":"GMT-07:00 America/Denver","Longitude":-105.01000000000001,"Latitude":39.939999999999998}},{"type":"Feature","id":42,"geometry":{"type":"Point","coordinates":[-105.11999999999995,39.930000000000064]},"properties":{"OBJECTID":42,"Brand":"Starbucks","Store_Number":"13425-107937","Store_Name":"Flatiron Market Place Drive","Ownership_Type":"Company Owned","Street_Address":"291 East Flatiron Circle","City":"Broomfield","State_Province":"CO","Country":"US","Postcode":"800218060","Phone_Number":"303-466-1142","Timezone":"GMT-07:00 America/Denver","Longitude":-105.12,"Latitude":39.93}},{"type":"Feature","id":43,"geometry":{"type":"Point","coordinates":[-104.75999999999999,39.61000000000007]},"properties":{"OBJECTID":43,"Brand":"Starbucks","Store_Number":"24220-230640","Store_Name":"King Soopers - Centennial #16","Ownership_Type":"Licensed","Street_Address":"19711 E Smokey Hill Rd.","City":"Centennial","State_Province":"CO","Country":"US","Postcode":"80015","Phone_Number":"303-400-3038","Timezone":"GMT-07:00 America/Denver","Longitude":-104.76000000000001,"Latitude":39.609999999999999}},{"type":"Feature","id":44,"geometry":{"type":"Point","coordinates":[-104.92999999999995,39.590000000000032]},"properties":{"OBJECTID":44,"Brand":"Starbucks","Store_Number":"10864-103214","Store_Name":"Araphoe Village - Centennial, CO","Ownership_Type":"Company Owned","Street_Address":"5070 Arapahoe Road, The Shops at Centennial","City":"Centennial","State_Province":"CO","Country":"US","Postcode":"801224814","Phone_Number":"303-221-0807","Timezone":"GMT-07:00 America/Denver","Longitude":-104.93000000000001,"Latitude":39.590000000000003}},{"type":"Feature","id":45,"geometry":{"type":"Point","coordinates":[-104.84999999999997,39.60000000000008]},"properties":{"OBJECTID":45,"Brand":"Starbucks","Store_Number":"6566-65340","Store_Name":"Arapahoe & Peoria","Ownership_Type":"Company Owned","Street_Address":"12023 East Arapahoe Road, Unit 140, Cherrywood Shopping Center","City":"Centennial","State_Province":"CO","Country":"US","Postcode":"801123815","Phone_Number":"303-768-8272","Timezone":"GMT-07:00 America/Denver","Longitude":-104.84999999999999,"Latitude":39.600000000000001}},{"type":"Feature","id":46,"geometry":{"type":"Point","coordinates":[-104.95999999999998,39.580000000000041]},"properties":{"OBJECTID":46,"Brand":"Starbucks","Store_Number":"2204-146","Store_Name":"Cherrywood","Ownership_Type":"Company Owned","Street_Address":"7521 S University Blvd","City":"Centennial","State_Province":"CO","Country":"US","Postcode":"801223179","Phone_Number":"(303) 347-9625","Timezone":"GMT-07:00 America/Denver","Longitude":-104.95999999999999,"Latitude":39.579999999999998}},{"type":"Feature","id":47,"geometry":{"type":"Point","coordinates":[-104.95999999999998,39.580000000000041]},"properties":{"OBJECTID":47,"Brand":"Starbucks","Store_Number":"26130-243204","Store_Name":"King Sooper Centennial 47","Ownership_Type":"Licensed","Street_Address":"7575 S University Blvd","City":"Centennial","State_Province":"CO","Country":"US","Postcode":"80122","Phone_Number":"303-798-0530","Timezone":"GMT-07:00 America/Denver","Longitude":-104.95999999999999,"Latitude":39.579999999999998}},{"type":"Feature","id":48,"geometry":{"type":"Point","coordinates":[-104.74999999999994,39.61000000000007]},"properties":{"OBJECTID":48,"Brand":"Starbucks","Store_Number":"74307-78801","Store_Name":"Safeway-Aurora #1933","Ownership_Type":"Licensed","Street_Address":"20153 E Smoky Hill Rd","City":"Centennial","State_Province":"CO","Country":"US","Postcode":"800153103","Phone_Number":"303-690-0866","Timezone":"GMT-07:00 America/Denver","Longitude":-104.75,"Latitude":39.609999999999999}},{"type":"Feature","id":49,"geometry":{"type":"Point","coordinates":[-104.90999999999997,39.57000000000005]},"properties":{"OBJECTID":49,"Brand":"Starbucks","Store_Number":"254-196664","Store_Name":"8243 So. Quebec, Cty Line Rd","Ownership_Type":"Company Owned","Street_Address":"8243 So. Quebec","City":"Centennial","State_Province":"CO","Country":"US","Postcode":"80112","Phone_Number":"3037795221","Timezone":"GMT-07:00 America/Denver","Longitude":-104.91,"Latitude":39.57}},{"type":"Feature","id":50,"geometry":{"type":"Point","coordinates":[-104.79999999999995,39.60000000000008]},"properties":{"OBJECTID":50,"Brand":"Starbucks","Store_Number":"5573-164244","Store_Name":"Arapahoe & Parker","Ownership_Type":"Company Owned","Street_Address":"15795 East Arapahoe Road","City":"Centennial","State_Province":"CO","Country":"US","Postcode":"80016","Phone_Number":"3036277441","Timezone":"GMT-07:00 America/Denver","Longitude":-104.8,"Latitude":39.600000000000001}},{"type":"Feature","id":51,"geometry":{"type":"Point","coordinates":[-104.80999999999995,39.890000000000043]},"properties":{"OBJECTID":51,"Brand":"Starbucks","Store_Number":"17364-173406","Store_Name":"King Soopers-Commerce City #114","Ownership_Type":"Licensed","Street_Address":"15051 E 104th Ave","City":"Commerce City","State_Province":"CO","Country":"US","Postcode":"80222","Phone_Number":"303-286-5464","Timezone":"GMT-07:00 America/Denver","Longitude":-104.81,"Latitude":39.890000000000001}},{"type":"Feature","id":52,"geometry":{"type":"Point","coordinates":[-104.76999999999998,39.880000000000052]},"properties":{"OBJECTID":52,"Brand":"Starbucks","Store_Number":"13604-108690","Store_Name":"104th & Tower, Commerce City","Ownership_Type":"Company Owned","Street_Address":"10339 Tower Road, Conifer Town Center","City":"Commerce City","State_Province":"CO","Country":"US","Postcode":"800229720","Phone_Number":"303-853-4400","Timezone":"GMT-07:00 America/Denver","Longitude":-104.77,"Latitude":39.880000000000003}},{"type":"Feature","id":53,"geometry":{"type":"Point","coordinates":[-105.30999999999995,39.53000000000003]},"properties":{"OBJECTID":53,"Brand":"Starbucks","Store_Number":"13938-104015","Store_Name":"Conifer Town Center - Conifer","Ownership_Type":"Company Owned","Street_Address":"26724 Conifer Town Center Dr","City":"Conifer","State_Province":"CO","Country":"US","Postcode":"804338558","Phone_Number":"303-838-4924","Timezone":"GMT-07:00 America/Denver","Longitude":-105.31,"Latitude":39.530000000000001}},{"type":"Feature","id":54,"geometry":{"type":"Point","coordinates":[-105.29999999999995,39.53000000000003]},"properties":{"OBJECTID":54,"Brand":"Starbucks","Store_Number":"79529-101065","Store_Name":"Safeway - Conifer #2792","Ownership_Type":"Licensed","Street_Address":"Hwy 285 & Light Ln","City":"Conifer","State_Province":"CO","Country":"US","Postcode":"80433","Phone_Number":"303-838-4375","Timezone":"GMT-07:00 America/Denver","Longitude":-105.3,"Latitude":39.530000000000001}},{"type":"Feature","id":55,"geometry":{"type":"Point","coordinates":[-105.28999999999996,39.540000000000077]},"properties":{"OBJECTID":55,"Brand":"Starbucks","Store_Number":"79264-93868","Store_Name":"King Soopers-Aspen Park #87","Ownership_Type":"Licensed","Street_Address":"25637 Conifer Road","City":"Conifer","State_Province":"CO","Country":"US","Postcode":"804339078","Phone_Number":"3038164960","Timezone":"GMT-07:00 America/Denver","Longitude":-105.29000000000001,"Latitude":39.539999999999999}},{"type":"Feature","id":56,"geometry":{"type":"Point","coordinates":[-105.00999999999999,39.750000000000057]},"properties":{"OBJECTID":56,"Brand":"Starbucks","Store_Number":"27708-240564","Store_Name":"Auraria Tivoli - Student Union","Ownership_Type":"Licensed","Street_Address":"900 Auraria Parkway","City":"Denver","State_Province":"CO","Country":"US","Postcode":"80204","Phone_Number":"3035563700","Timezone":"GMT-07:00 America/Denver","Longitude":-105.01000000000001,"Latitude":39.75}},{"type":"Feature","id":57,"geometry":{"type":"Point","coordinates":[-104.98999999999995,39.750000000000057]},"properties":{"OBJECTID":57,"Brand":"Starbucks","Store_Number":"75828-94910","Store_Name":"Grand Hyatt Denver","Ownership_Type":"Licensed","Street_Address":"1740 Welton St","City":"Denver","State_Province":"CO","Country":"US","Postcode":"802023940","Phone_Number":"303-295-1234","Timezone":"GMT-07:00 America/Denver","Longitude":-104.98999999999999,"Latitude":39.75}},{"type":"Feature","id":58,"geometry":{"type":"Point","coordinates":[-104.96999999999997,39.680000000000064]},"properties":{"OBJECTID":58,"Brand":"Starbucks","Store_Number":"74105-23807","Store_Name":"Safeway - Denver #1463","Ownership_Type":"Licensed","Street_Address":"2150 S Downing","City":"Denver","State_Province":"CO","Country":"US","Postcode":"802104528","Phone_Number":"303-722-6117","Timezone":"GMT-07:00 America/Denver","Longitude":-104.97,"Latitude":39.68}},{"type":"Feature","id":59,"geometry":{"type":"Point","coordinates":[-105.01999999999998,39.760000000000048]},"properties":{"OBJECTID":59,"Brand":"Starbucks","Store_Number":"22871-102491","Store_Name":"Safeway - Denver #1248","Ownership_Type":"Licensed","Street_Address":"2660 Federal Blvd","City":"Denver","State_Province":"CO","Country":"US","Postcode":"80211","Phone_Number":"303-477-5091","Timezone":"GMT-07:00 America/Denver","Longitude":-105.02,"Latitude":39.759999999999998}},{"type":"Feature","id":60,"geometry":{"type":"Point","coordinates":[-105.04999999999995,39.770000000000039]},"properties":{"OBJECTID":60,"Brand":"Starbucks","Store_Number":"11105-100844","Store_Name":"Highlands Garden Village","Ownership_Type":"Company Owned","Street_Address":"4500 W 38th Ave, Capitol Hill Center","City":"Denver","State_Province":"CO","Country":"US","Postcode":"802122001","Phone_Number":"303-455-3382","Timezone":"GMT-07:00 America/Denver","Longitude":-105.05,"Latitude":39.770000000000003}},{"type":"Feature","id":61,"geometry":{"type":"Point","coordinates":[-104.96999999999997,39.730000000000075]},"properties":{"OBJECTID":61,"Brand":"Starbucks","Store_Number":"75003-33060","Store_Name":"King Soopers-Denver #29","Ownership_Type":"Licensed","Street_Address":"1155 E. 9th Ave.","City":"Denver","State_Province":"CO","Country":"US","Postcode":"802184802","Phone_Number":"303-832-5262","Timezone":"GMT-07:00 America/Denver","Longitude":-104.97,"Latitude":39.729999999999997}},{"type":"Feature","id":62,"geometry":{"type":"Point","coordinates":[-105.00999999999999,39.650000000000034]},"properties":{"OBJECTID":62,"Brand":"Starbucks","Store_Number":"19695-165566","Store_Name":"Hampden & Santa Fe, Sheridan","Ownership_Type":"Company Owned","Street_Address":"3500 A River Point Parkway","City":"Denver","State_Province":"CO","Country":"US","Postcode":"80110","Phone_Number":"3037611675","Timezone":"GMT-07:00 America/Denver","Longitude":-105.01000000000001,"Latitude":39.649999999999999}},{"type":"Feature","id":63,"geometry":{"type":"Point","coordinates":[-104.90999999999997,39.670000000000073]},"properties":{"OBJECTID":63,"Brand":"Starbucks","Store_Number":"74108-17656","Store_Name":"Safeway-Denver #1267","Ownership_Type":"Licensed","Street_Address":"6460 East Yale Ave","City":"Denver","State_Province":"CO","Country":"US","Postcode":"802227156","Phone_Number":"303-691-8870","Timezone":"GMT-07:00 America/Denver","Longitude":-104.91,"Latitude":39.670000000000002}},{"type":"Feature","id":64,"geometry":{"type":"Point","coordinates":[-104.89999999999998,39.650000000000034]},"properties":{"OBJECTID":64,"Brand":"Starbucks","Store_Number":"18946-177247","Store_Name":"Target Denver T-2820","Ownership_Type":"Licensed","Street_Address":"7777 E. Hampden Ave","City":"Denver","State_Province":"CO","Country":"US","Postcode":"80231","Phone_Number":"303-481-2821","Timezone":"GMT-07:00 America/Denver","Longitude":-104.90000000000001,"Latitude":39.649999999999999}},{"type":"Feature","id":65,"geometry":{"type":"Point","coordinates":[-104.91999999999996,39.710000000000036]},"properties":{"OBJECTID":65,"Brand":"Starbucks","Store_Number":"5440-1319","Store_Name":"5835 Leetsdale","Ownership_Type":"Company Owned","Street_Address":"5835 Leetsdale Drive","City":"Denver","State_Province":"CO","Country":"US","Postcode":"802241222","Phone_Number":"(303) 388-8367","Timezone":"GMT-07:00 America/Denver","Longitude":-104.92,"Latitude":39.710000000000001}},{"type":"Feature","id":66,"geometry":{"type":"Point","coordinates":[-104.98999999999995,39.740000000000066]},"properties":{"OBJECTID":66,"Brand":"Starbucks","Store_Number":"6205-30","Store_Name":"UMB Bank Plaza","Ownership_Type":"Company Owned","Street_Address":"1670 Broadway","City":"Denver","State_Province":"CO","Country":"US","Postcode":"802024801","Phone_Number":"(303) 863-1826","Timezone":"GMT-07:00 America/Denver","Longitude":-104.98999999999999,"Latitude":39.740000000000002}},{"type":"Feature","id":67,"geometry":{"type":"Point","coordinates":[-104.98999999999995,39.690000000000055]},"properties":{"OBJECTID":67,"Brand":"Starbucks","Store_Number":"6618-69880","Store_Name":"Santa Fe & Mississippi","Ownership_Type":"Company Owned","Street_Address":"1285 S Santa Fe Drive","City":"Denver","State_Province":"CO","Country":"US","Postcode":"802233214","Phone_Number":"303-715-0600","Timezone":"GMT-07:00 America/Denver","Longitude":-104.98999999999999,"Latitude":39.689999999999998}},{"type":"Feature","id":68,"geometry":{"type":"Point","coordinates":[-104.89999999999998,39.720000000000027]},"properties":{"OBJECTID":68,"Brand":"Starbucks","Store_Number":"10862-103208","Store_Name":"Lowry Town Center - Denver","Ownership_Type":"Company Owned","Street_Address":"200 Quebec St.","City":"Denver","State_Province":"CO","Country":"US","Postcode":"802307144","Phone_Number":"303-340-5843","Timezone":"GMT-07:00 America/Denver","Longitude":-104.90000000000001,"Latitude":39.719999999999999}},{"type":"Feature","id":69,"geometry":{"type":"Point","coordinates":[-104.93999999999994,39.670000000000073]},"properties":{"OBJECTID":69,"Brand":"Starbucks","Store_Number":"79292-99564","Store_Name":"King Soopers - Denver #72","Ownership_Type":"Licensed","Street_Address":"2750 S Colorado Blvd","City":"Denver","State_Province":"CO","Country":"US","Postcode":"802226602","Phone_Number":"303-512-0122","Timezone":"GMT-07:00 America/Denver","Longitude":-104.94,"Latitude":39.670000000000002}},{"type":"Feature","id":70,"geometry":{"type":"Point","coordinates":[-104.98999999999995,39.740000000000066]},"properties":{"OBJECTID":70,"Brand":"Starbucks","Store_Number":"15466-156825","Store_Name":"Embassy Suites Denver Downtown Conv","Ownership_Type":"Licensed","Street_Address":"1420 Stout St","City":"Denver","State_Province":"CO","Country":"US","Postcode":"802023201","Phone_Number":"303-592-1000","Timezone":"GMT-07:00 America/Denver","Longitude":-104.98999999999999,"Latitude":39.740000000000002}},{"type":"Feature","id":71,"geometry":{"type":"Point","coordinates":[-105.03999999999996,39.78000000000003]},"properties":{"OBJECTID":71,"Brand":"Starbucks","Store_Number":"74296-77462","Store_Name":"Safeway-Denver #244","Ownership_Type":"Licensed","Street_Address":"3800 W 44th Ave, REI","City":"Denver","State_Province":"CO","Country":"US","Postcode":"802111305","Phone_Number":"303-458-8418","Timezone":"GMT-07:00 America/Denver","Longitude":-105.04000000000001,"Latitude":39.780000000000001}},{"type":"Feature","id":72,"geometry":{"type":"Point","coordinates":[-105.00999999999999,39.760000000000048]},"properties":{"OBJECTID":72,"Brand":"Starbucks","Store_Number":"6342-10647","Store_Name":"REI Denver","Ownership_Type":"Company Owned","Street_Address":"1416 Platte River, Suite A","City":"Denver","State_Province":"CO","Country":"US","Postcode":"802026161","Phone_Number":"303/477-5445","Timezone":"GMT-07:00 America/Denver","Longitude":-105.01000000000001,"Latitude":39.759999999999998}},{"type":"Feature","id":73,"geometry":{"type":"Point","coordinates":[-104.98999999999995,39.770000000000039]},"properties":{"OBJECTID":73,"Brand":"Starbucks","Store_Number":"10496-100761","Store_Name":"Park Ave & Globeville- Denver","Ownership_Type":"Company Owned","Street_Address":"3470 Park Ave West, Writer's Square","City":"Denver","State_Province":"CO","Country":"US","Postcode":"802165105","Phone_Number":"303-433-1217","Timezone":"GMT-07:00 America/Denver","Longitude":-104.98999999999999,"Latitude":39.770000000000003}},{"type":"Feature","id":74,"geometry":{"type":"Point","coordinates":[-104.99999999999994,39.750000000000057]},"properties":{"OBJECTID":74,"Brand":"Starbucks","Store_Number":"6657-73731","Store_Name":"Writer Square","Ownership_Type":"Company Owned","Street_Address":"1512 Larimer Street","City":"Denver","State_Province":"CO","Country":"US","Postcode":"802021610","Phone_Number":"720-932-6574","Timezone":"GMT-07:00 America/Denver","Longitude":-105,"Latitude":39.75}},{"type":"Feature","id":75,"geometry":{"type":"Point","coordinates":[-104.91999999999996,39.650000000000034]},"properties":{"OBJECTID":75,"Brand":"Starbucks","Store_Number":"11474-105326","Store_Name":"Hampden & Locust, Denver","Ownership_Type":"Company Owned","Street_Address":"6395 E. Hampden Ave.","City":"Denver","State_Province":"CO","Country":"US","Postcode":"802227602","Phone_Number":"303 691-3437","Timezone":"GMT-07:00 America/Denver","Longitude":-104.92,"Latitude":39.649999999999999}},{"type":"Feature","id":76,"geometry":{"type":"Point","coordinates":[-104.93999999999994,39.690000000000055]},"properties":{"OBJECTID":76,"Brand":"Starbucks","Store_Number":"74254-65021","Store_Name":"Safeway-Denver #1038","Ownership_Type":"Licensed","Street_Address":"1653 S Colorado Blvd","City":"Denver","State_Province":"CO","Country":"US","Postcode":"802201055","Phone_Number":"303-691-2960","Timezone":"GMT-07:00 America/Denver","Longitude":-104.94,"Latitude":39.689999999999998}},{"type":"Feature","id":77,"geometry":{"type":"Point","coordinates":[-104.96999999999997,39.710000000000036]},"properties":{"OBJECTID":77,"Brand":"Starbucks","Store_Number":"8971-94801","Store_Name":"Alameda & Downing","Ownership_Type":"Company Owned","Street_Address":"1209 East Alameda Ave","City":"Denver","State_Province":"CO","Country":"US","Postcode":"802092420","Phone_Number":"303-733-0246","Timezone":"GMT-07:00 America/Denver","Longitude":-104.97,"Latitude":39.710000000000001}},{"type":"Feature","id":78,"geometry":{"type":"Point","coordinates":[-104.89999999999998,39.760000000000048]},"properties":{"OBJECTID":78,"Brand":"Starbucks","Store_Number":"16946-106016","Store_Name":"King Soopers-Denver #93","Ownership_Type":"Licensed","Street_Address":"2810 Quebec St.","City":"Denver","State_Province":"CO","Country":"US","Postcode":"802072900","Phone_Number":"303-333-3223","Timezone":"GMT-07:00 America/Denver","Longitude":-104.90000000000001,"Latitude":39.759999999999998}},{"type":"Feature","id":79,"geometry":{"type":"Point","coordinates":[-104.94999999999999,39.720000000000027]},"properties":{"OBJECTID":79,"Brand":"Starbucks","Store_Number":"253-136","Store_Name":"2nd Ave and Filmore - Cherry Creek","Ownership_Type":"Company Owned","Street_Address":"200 Fillmore Street, Cherry Creek","City":"Denver","State_Province":"CO","Country":"US","Postcode":"802065028","Phone_Number":"(303) 388-7565","Timezone":"GMT-07:00 America/Denver","Longitude":-104.95,"Latitude":39.719999999999999}},{"type":"Feature","id":80,"geometry":{"type":"Point","coordinates":[-104.94999999999999,39.720000000000027]},"properties":{"OBJECTID":80,"Brand":"Teavana","Store_Number":"28591-249796","Store_Name":"Teavana - Cherry Creek","Ownership_Type":"Company Owned","Street_Address":"3000 E. 1ST STREET, #264","City":"DENVER","State_Province":"CO","Country":"US","Postcode":"80206","Phone_Number":"303-394-2005","Timezone":"GMT-07:00 America/Denver","Longitude":-104.95,"Latitude":39.719999999999999}},{"type":"Feature","id":81,"geometry":{"type":"Point","coordinates":[-104.98999999999995,39.750000000000057]},"properties":{"OBJECTID":81,"Brand":"Starbucks","Store_Number":"6381-25487","Store_Name":"18th & California","Ownership_Type":"Company Owned","Street_Address":"633 17th St, 110","City":"Denver","State_Province":"CO","Country":"US","Postcode":"802023616","Phone_Number":"303-382-1236","Timezone":"GMT-07:00 America/Denver","Longitude":-104.98999999999999,"Latitude":39.75}},{"type":"Feature","id":82,"geometry":{"type":"Point","coordinates":[-104.99999999999994,39.760000000000048]},"properties":{"OBJECTID":82,"Brand":"Starbucks","Store_Number":"24712-197869","Store_Name":"King Soopers Store #115 Denver","Ownership_Type":"Licensed","Street_Address":"1950 Chestnut Pl","City":"Denver","State_Province":"CO","Country":"US","Postcode":"80202","Phone_Number":"303-678-2433","Timezone":"GMT-07:00 America/Denver","Longitude":-105,"Latitude":39.759999999999998}},{"type":"Feature","id":83,"geometry":{"type":"Point","coordinates":[-104.94999999999999,39.740000000000066]},"properties":{"OBJECTID":83,"Brand":"Starbucks","Store_Number":"2946-87321","Store_Name":"Colfax & Milwaukee-Denver","Ownership_Type":"Company Owned","Street_Address":"2975 E Colfax Ave","City":"Denver","State_Province":"CO","Country":"US","Postcode":"802061604","Phone_Number":"303-316-2822","Timezone":"GMT-07:00 America/Denver","Longitude":-104.95,"Latitude":39.740000000000002}},{"type":"Feature","id":84,"geometry":{"type":"Point","coordinates":[-104.95999999999998,39.680000000000064]},"properties":{"OBJECTID":84,"Brand":"Starbucks","Store_Number":"6214-38","Store_Name":"University & Asbury","Ownership_Type":"Company Owned","Street_Address":"2000 S. University, #B","City":"Denver","State_Province":"CO","Country":"US","Postcode":"802104367","Phone_Number":"(303) 733-9377","Timezone":"GMT-07:00 America/Denver","Longitude":-104.95999999999999,"Latitude":39.68}},{"type":"Feature","id":85,"geometry":{"type":"Point","coordinates":[-104.93999999999994,39.730000000000075]},"properties":{"OBJECTID":85,"Brand":"Starbucks","Store_Number":"270-138","Store_Name":"8th & Colorado","Ownership_Type":"Company Owned","Street_Address":"801 Colorado Blvd.","City":"Denver","State_Province":"CO","Country":"US","Postcode":"802064037","Phone_Number":"(303) 329-0040","Timezone":"GMT-07:00 America/Denver","Longitude":-104.94,"Latitude":39.729999999999997}},{"type":"Feature","id":86,"geometry":{"type":"Point","coordinates":[-105.01999999999998,39.760000000000048]},"properties":{"OBJECTID":86,"Brand":"Starbucks","Store_Number":"10019-98985","Store_Name":"Speer & Federal - Denver","Ownership_Type":"Company Owned","Street_Address":"2990 North Speer Blvd, Unit 1, University Hills Mall","City":"Denver","State_Province":"CO","Country":"US","Postcode":"802114252","Phone_Number":"303-477-5234","Timezone":"GMT-07:00 America/Denver","Longitude":-105.02,"Latitude":39.759999999999998}},{"type":"Feature","id":87,"geometry":{"type":"Point","coordinates":[-104.93999999999994,39.670000000000073]},"properties":{"OBJECTID":87,"Brand":"Starbucks","Store_Number":"5434-872","Store_Name":"University Hills","Ownership_Type":"Company Owned","Street_Address":"2700 S. Colorado Blvd.","City":"Denver","State_Province":"CO","Country":"US","Postcode":"802103506","Phone_Number":"3037536722","Timezone":"GMT-07:00 America/Denver","Longitude":-104.94,"Latitude":39.670000000000002}},{"type":"Feature","id":88,"geometry":{"type":"Point","coordinates":[-105.01999999999998,39.78000000000003]},"properties":{"OBJECTID":88,"Brand":"Starbucks","Store_Number":"10770-100758","Store_Name":"44th Ave & Federal Blvd-Denver","Ownership_Type":"Company Owned","Street_Address":"2990 W 44th Ave, Plaza Zocalo","City":"Denver","State_Province":"CO","Country":"US","Postcode":"802111408","Phone_Number":"303-477-1457","Timezone":"GMT-07:00 America/Denver","Longitude":-105.02,"Latitude":39.780000000000001}},{"type":"Feature","id":89,"geometry":{"type":"Point","coordinates":[-104.99999999999994,39.740000000000066]},"properties":{"OBJECTID":89,"Brand":"Starbucks","Store_Number":"6822-82361","Store_Name":"Colfax & Kalamath","Ownership_Type":"Company Owned","Street_Address":"1050 W Colfax Ave","City":"Denver","State_Province":"CO","Country":"US","Postcode":"802042072","Phone_Number":"303-260-7030","Timezone":"GMT-07:00 America/Denver","Longitude":-105,"Latitude":39.740000000000002}},{"type":"Feature","id":90,"geometry":{"type":"Point","coordinates":[-104.98999999999995,39.750000000000057]},"properties":{"OBJECTID":90,"Brand":"Starbucks","Store_Number":"24838-238076","Store_Name":"17th and Lawrence","Ownership_Type":"Company Owned","Street_Address":"1125 17th Street","City":"Denver","State_Province":"CO","Country":"US","Postcode":"80202","Phone_Number":"303-242-4741","Timezone":"GMT-07:00 America/Denver","Longitude":-104.98999999999999,"Latitude":39.75}},{"type":"Feature","id":91,"geometry":{"type":"Point","coordinates":[-105.03999999999996,39.740000000000066]},"properties":{"OBJECTID":91,"Brand":"Starbucks","Store_Number":"48194-254256","Store_Name":"Breckenridge at Sloans","Ownership_Type":"Licensed","Street_Address":"Colfax Ave. and Raleigh Street","City":"Denver","State_Province":"CO","Country":"US","Postcode":"80204","Phone_Number":"7209047014","Timezone":"GMT-07:00 America/Denver","Longitude":-105.04000000000001,"Latitude":39.740000000000002}},{"type":"Feature","id":92,"geometry":{"type":"Point","coordinates":[-104.84999999999997,39.78000000000003]},"properties":{"OBJECTID":92,"Brand":"Starbucks","Store_Number":"10625-100287","Store_Name":"45th & Peoria-Denver","Ownership_Type":"Company Owned","Street_Address":"4505 Peoria Street","City":"Denver","State_Province":"CO","Country":"US","Postcode":"802394848","Phone_Number":"303-371-0089","Timezone":"GMT-07:00 America/Denver","Longitude":-104.84999999999999,"Latitude":39.780000000000001}},{"type":"Feature","id":93,"geometry":{"type":"Point","coordinates":[-104.80999999999995,39.770000000000039]},"properties":{"OBJECTID":93,"Brand":"Starbucks","Store_Number":"27847-248910","Store_Name":"Chambers and 40th","Ownership_Type":"Company Owned","Street_Address":"4005 Chambers Road","City":"Denver","State_Province":"CO","Country":"US","Postcode":"80239","Phone_Number":"7205820998","Timezone":"GMT-07:00 America/Denver","Longitude":-104.81,"Latitude":39.770000000000003}},{"type":"Feature","id":94,"geometry":{"type":"Point","coordinates":[-104.66999999999996,39.86000000000007]},"properties":{"OBJECTID":94,"Brand":"Starbucks","Store_Number":"75960-108269","Store_Name":"DEN B RJ Term South Finger Lower","Ownership_Type":"Licensed","Street_Address":"HMSHost 8500 Pena Blvd","City":"Denver","State_Province":"CO","Country":"US","Postcode":"80249","Phone_Number":"303-342-6655","Timezone":"GMT-07:00 America/Denver","Longitude":-104.67,"Latitude":39.859999999999999}},{"type":"Feature","id":95,"geometry":{"type":"Point","coordinates":[-104.93999999999994,39.770000000000039]},"properties":{"OBJECTID":95,"Brand":"Starbucks","Store_Number":"11473-103805","Store_Name":"40th & Colorado-Denver","Ownership_Type":"Company Owned","Street_Address":"4030 Colorado Blvd, 101","City":"Denver","State_Province":"CO","Country":"US","Postcode":"802164303","Phone_Number":"303 320-7610","Timezone":"GMT-07:00 America/Denver","Longitude":-104.94,"Latitude":39.770000000000003}},{"type":"Feature","id":96,"geometry":{"type":"Point","coordinates":[-105.04999999999995,39.660000000000025]},"properties":{"OBJECTID":96,"Brand":"Starbucks","Store_Number":"75004-70380","Store_Name":"King Soopers-Denver #19","Ownership_Type":"Licensed","Street_Address":"3100 S Sheridan","City":"Denver","State_Province":"CO","Country":"US","Postcode":"802275541","Phone_Number":"303-937-4400","Timezone":"GMT-07:00 America/Denver","Longitude":-105.05,"Latitude":39.659999999999997}},{"type":"Feature","id":97,"geometry":{"type":"Point","coordinates":[-104.98999999999995,39.740000000000066]},"properties":{"OBJECTID":97,"Brand":"Starbucks","Store_Number":"75324-95897","Store_Name":"Atrium @ 1700 Broadway","Ownership_Type":"Licensed","Street_Address":"1700 Broadway","City":"Denver","State_Province":"CO","Country":"US","Postcode":"802901700","Phone_Number":"3038320771","Timezone":"GMT-07:00 America/Denver","Longitude":-104.98999999999999,"Latitude":39.740000000000002}},{"type":"Feature","id":98,"geometry":{"type":"Point","coordinates":[-104.99999999999994,39.740000000000066]},"properties":{"OBJECTID":98,"Brand":"Starbucks","Store_Number":"73787-111045","Store_Name":"King Soopers - Denver #1","Ownership_Type":"Licensed","Street_Address":"1331 N Speer Blvd","City":"Denver","State_Province":"CO","Country":"US","Postcode":"80204","Phone_Number":null,"Timezone":"GMT-07:00 America/Denver","Longitude":-105,"Latitude":39.740000000000002}},{"type":"Feature","id":99,"geometry":{"type":"Point","coordinates":[-104.99999999999994,39.750000000000057]},"properties":{"OBJECTID":99,"Brand":"Starbucks","Store_Number":"248-135","Store_Name":"Larimer Square","Ownership_Type":"Company Owned","Street_Address":"1406 Larimer St","City":"Denver","State_Province":"CO","Country":"US","Postcode":"802021705","Phone_Number":"(303) 446-8534","Timezone":"GMT-07:00 America/Denver","Longitude":-105,"Latitude":39.75}},{"type":"Feature","id":100,"geometry":{"type":"Point","coordinates":[-104.96999999999997,39.730000000000075]},"properties":{"OBJECTID":100,"Brand":"Starbucks","Store_Number":"74125-25289","Store_Name":"Safeway-Denver #1614","Ownership_Type":"Licensed","Street_Address":"560 Corona St.","City":"Denver","State_Province":"CO","Country":"US","Postcode":"802183436","Phone_Number":"303-777-1231","Timezone":"GMT-07:00 America/Denver","Longitude":-104.97,"Latitude":39.729999999999997}},{"type":"Feature","id":101,"geometry":{"type":"Point","coordinates":[-104.91999999999996,39.740000000000066]},"properties":{"OBJECTID":101,"Brand":"Starbucks","Store_Number":"8115-95975","Store_Name":"Colfax & Krameria","Ownership_Type":"Company Owned","Street_Address":"6160 E. Colfax Ave, Unit 1","City":"Denver","State_Province":"CO","Country":"US","Postcode":"802201569","Phone_Number":"303-355-2658","Timezone":"GMT-07:00 America/Denver","Longitude":-104.92,"Latitude":39.740000000000002}},{"type":"Feature","id":102,"geometry":{"type":"Point","coordinates":[-104.89999999999998,39.720000000000027]},"properties":{"OBJECTID":102,"Brand":"Starbucks","Store_Number":"73566-81441","Store_Name":"Safeway - Denver #3836","Ownership_Type":"Licensed","Street_Address":"200 Quebec St, #400","City":"Denver","State_Province":"CO","Country":"US","Postcode":"802307145","Phone_Number":"303-340-4455","Timezone":"GMT-07:00 America/Denver","Longitude":-104.90000000000001,"Latitude":39.719999999999999}},{"type":"Feature","id":103,"geometry":{"type":"Point","coordinates":[-104.99999999999994,39.740000000000066]},"properties":{"OBJECTID":103,"Brand":"Starbucks","Store_Number":"17562-165406","Store_Name":"14th & Speer, Denver","Ownership_Type":"Company Owned","Street_Address":"1410 Speer Blvd, 16 Market Square","City":"Denver","State_Province":"CO","Country":"US","Postcode":"80204","Phone_Number":"3035340351","Timezone":"GMT-07:00 America/Denver","Longitude":-105,"Latitude":39.740000000000002}},{"type":"Feature","id":104,"geometry":{"type":"Point","coordinates":[-104.99999999999994,39.750000000000057]},"properties":{"OBJECTID":104,"Brand":"Starbucks","Store_Number":"5803-15714","Store_Name":"16th St. & Blake","Ownership_Type":"Company Owned","Street_Address":"1490 16th Street","City":"Denver","State_Province":"CO","Country":"US","Postcode":"802021320","Phone_Number":"7209043650","Timezone":"GMT-07:00 America/Denver","Longitude":-105,"Latitude":39.75}},{"type":"Feature","id":105,"geometry":{"type":"Point","coordinates":[-104.93999999999994,39.690000000000055]},"properties":{"OBJECTID":105,"Brand":"Starbucks","Store_Number":"8916-95345","Store_Name":"Colorado & Arizona","Ownership_Type":"Company Owned","Street_Address":"1233 S. Colorado Blvd, 16th & Curtis","City":"Denver","State_Province":"CO","Country":"US","Postcode":"802462902","Phone_Number":"303-758-0625","Timezone":"GMT-07:00 America/Denver","Longitude":-104.94,"Latitude":39.689999999999998}},{"type":"Feature","id":106,"geometry":{"type":"Point","coordinates":[-104.98999999999995,39.750000000000057]},"properties":{"OBJECTID":106,"Brand":"Starbucks","Store_Number":"5392-873","Store_Name":"16th Street & Curtis","Ownership_Type":"Company Owned","Street_Address":"934 Sixteenth Street","City":"Denver","State_Province":"CO","Country":"US","Postcode":"802022902","Phone_Number":"(303) 454-9852","Timezone":"GMT-07:00 America/Denver","Longitude":-104.98999999999999,"Latitude":39.75}},{"type":"Feature","id":107,"geometry":{"type":"Point","coordinates":[-104.98999999999995,39.740000000000066]},"properties":{"OBJECTID":107,"Brand":"Starbucks","Store_Number":"5640-2442","Store_Name":"16th & Tremont","Ownership_Type":"Company Owned","Street_Address":"303 16th Street, Ste. 100","City":"Denver","State_Province":"CO","Country":"US","Postcode":"802025657","Phone_Number":"303/575-6753","Timezone":"GMT-07:00 America/Denver","Longitude":-104.98999999999999,"Latitude":39.740000000000002}},{"type":"Feature","id":108,"geometry":{"type":"Point","coordinates":[-104.99999999999994,39.750000000000057]},"properties":{"OBJECTID":108,"Brand":"Starbucks","Store_Number":"22162-218186","Store_Name":"1900 Sixteenth St.","Ownership_Type":"Company Owned","Street_Address":"1900 Sixteenth St., 100","City":"Denver","State_Province":"CO","Country":"US","Postcode":"80202","Phone_Number":"3036233414","Timezone":"GMT-07:00 America/Denver","Longitude":-105,"Latitude":39.75}},{"type":"Feature","id":109,"geometry":{"type":"Point","coordinates":[-104.94999999999999,39.720000000000027]},"properties":{"OBJECTID":109,"Brand":"Starbucks","Store_Number":"74178-32999","Store_Name":"Safeway-Denver #100","Ownership_Type":"Licensed","Street_Address":"3110  E  1st Ave","City":"Denver","State_Province":"CO","Country":"US","Postcode":"802065614","Phone_Number":"303-355-5486","Timezone":"GMT-07:00 America/Denver","Longitude":-104.95,"Latitude":39.719999999999999}},{"type":"Feature","id":110,"geometry":{"type":"Point","coordinates":[-104.98999999999995,39.710000000000036]},"properties":{"OBJECTID":110,"Brand":"Starbucks","Store_Number":"73165-21582","Store_Name":"Safeway - Denver #885","Ownership_Type":"Licensed","Street_Address":"323 S Broadway, Denver Place Mall","City":"Denver","State_Province":"CO","Country":"US","Postcode":"802091511","Phone_Number":"303-744-8531","Timezone":"GMT-07:00 America/Denver","Longitude":-104.98999999999999,"Latitude":39.710000000000001}},{"type":"Feature","id":111,"geometry":{"type":"Point","coordinates":[-104.98999999999995,39.750000000000057]},"properties":{"OBJECTID":111,"Brand":"Starbucks","Store_Number":"6697-73722","Store_Name":"18th & Champa","Ownership_Type":"Company Owned","Street_Address":"999 18th Street, 113","City":"Denver","State_Province":"CO","Country":"US","Postcode":"802022499","Phone_Number":"303-297-1798","Timezone":"GMT-07:00 America/Denver","Longitude":-104.98999999999999,"Latitude":39.75}},{"type":"Feature","id":112,"geometry":{"type":"Point","coordinates":[-104.86999999999995,39.650000000000034]},"properties":{"OBJECTID":112,"Brand":"Starbucks","Store_Number":"11034-104012","Store_Name":"Hampden & Dayton - Denver","Ownership_Type":"Company Owned","Street_Address":"9925 East Hampden Ave","City":"Denver","State_Province":"CO","Country":"US","Postcode":"802314903","Phone_Number":"303 369-5081","Timezone":"GMT-07:00 America/Denver","Longitude":-104.87,"Latitude":39.649999999999999}},{"type":"Feature","id":113,"geometry":{"type":"Point","coordinates":[-104.97999999999996,39.730000000000075]},"properties":{"OBJECTID":113,"Brand":"Starbucks","Store_Number":"5285-803","Store_Name":"6th & Grant (Lattas)","Ownership_Type":"Company Owned","Street_Address":"300 E. 6th Ave., #5","City":"Denver","State_Province":"CO","Country":"US","Postcode":"802036630","Phone_Number":"(303) 765-5789","Timezone":"GMT-07:00 America/Denver","Longitude":-104.98,"Latitude":39.729999999999997}},{"type":"Feature","id":114,"geometry":{"type":"Point","coordinates":[-104.97999999999996,39.880000000000052]},"properties":{"OBJECTID":114,"Brand":"Starbucks","Store_Number":"8863-95109","Store_Name":"102nd & Grant-Thornton","Ownership_Type":"Company Owned","Street_Address":"10005 Grant St, Unit F","City":"Denver","State_Province":"CO","Country":"US","Postcode":"802292033","Phone_Number":"303-255-3069","Timezone":"GMT-07:00 America/Denver","Longitude":-104.98,"Latitude":39.880000000000003}},{"type":"Feature","id":115,"geometry":{"type":"Point","coordinates":[-104.89999999999998,39.790000000000077]},"properties":{"OBJECTID":115,"Brand":"Starbucks","Store_Number":"10436-98953","Store_Name":"I-70 & I-270- Stapleton","Ownership_Type":"Company Owned","Street_Address":"7990 E. 49th Avenue, Villa Monaco","City":"Denver","State_Province":"CO","Country":"US","Postcode":"802071709","Phone_Number":"303-371-1503","Timezone":"GMT-07:00 America/Denver","Longitude":-104.90000000000001,"Latitude":39.789999999999999}},{"type":"Feature","id":116,"geometry":{"type":"Point","coordinates":[-104.90999999999997,39.680000000000064]},"properties":{"OBJECTID":116,"Brand":"Starbucks","Store_Number":"6540-62379","Store_Name":"Monaco & Evans","Ownership_Type":"Company Owned","Street_Address":"2223 S. Monaco Parkway, G110","City":"Denver","State_Province":"CO","Country":"US","Postcode":"802225893","Phone_Number":"303-504-4600","Timezone":"GMT-07:00 America/Denver","Longitude":-104.91,"Latitude":39.68}},{"type":"Feature","id":117,"geometry":{"type":"Point","coordinates":[-104.94999999999999,39.720000000000027]},"properties":{"OBJECTID":117,"Brand":"Starbucks","Store_Number":"10861-103209","Store_Name":"Cherry Creek Mall - West.","Ownership_Type":"Company Owned","Street_Address":"3000 1st Ave.","City":"Denver","State_Province":"CO","Country":"US","Postcode":"802065638","Phone_Number":"303-320-7560","Timezone":"GMT-07:00 America/Denver","Longitude":-104.95,"Latitude":39.719999999999999}},{"type":"Feature","id":118,"geometry":{"type":"Point","coordinates":[-104.89999999999998,39.78000000000003]},"properties":{"OBJECTID":118,"Brand":"Starbucks","Store_Number":"76470-97550","Store_Name":"SuperTarget  Denver/Stapltn ST-2052","Ownership_Type":"Licensed","Street_Address":"7930 E 49th Ave","City":"Denver","State_Province":"CO","Country":"US","Postcode":"802071709","Phone_Number":"303-209-8720","Timezone":"GMT-07:00 America/Denver","Longitude":-104.90000000000001,"Latitude":39.780000000000001}},{"type":"Feature","id":119,"geometry":{"type":"Point","coordinates":[-105.01999999999998,39.710000000000036]},"properties":{"OBJECTID":119,"Brand":"Starbucks","Store_Number":"29429-253366","Store_Name":"Alameda and Federal","Ownership_Type":"Company Owned","Street_Address":"2790 W. Alameda Ave.","City":"Denver","State_Province":"CO","Country":"US","Postcode":"80219","Phone_Number":"7204989109","Timezone":"GMT-07:00 America/Denver","Longitude":-105.02,"Latitude":39.710000000000001}},{"type":"Feature","id":120,"geometry":{"type":"Point","coordinates":[-104.66999999999996,39.86000000000007]},"properties":{"OBJECTID":120,"Brand":"Starbucks","Store_Number":"75959-108270","Store_Name":"DEN B RJ Term South Finger Upper","Ownership_Type":"Licensed","Street_Address":"HMSHost 8500 Pena Blvd.","City":"Denver","State_Province":"CO","Country":"US","Postcode":"80249","Phone_Number":"303-342-6655","Timezone":"GMT-07:00 America/Denver","Longitude":-104.67,"Latitude":39.859999999999999}},{"type":"Feature","id":121,"geometry":{"type":"Point","coordinates":[-104.92999999999995,39.650000000000034]},"properties":{"OBJECTID":121,"Brand":"Starbucks","Store_Number":"6225-283","Store_Name":"Hampden & Happy Canyon","Ownership_Type":"Company Owned","Street_Address":"5074 E. Hampden Avenue","City":"Denver","State_Province":"CO","Country":"US","Postcode":"802227329","Phone_Number":"(303) 639-3102","Timezone":"GMT-07:00 America/Denver","Longitude":-104.93000000000001,"Latitude":39.649999999999999}},{"type":"Feature","id":122,"geometry":{"type":"Point","coordinates":[-104.98999999999995,39.750000000000057]},"properties":{"OBJECTID":122,"Brand":"Starbucks","Store_Number":"10673-100271","Store_Name":"16th & California- Denver","Ownership_Type":"Company Owned","Street_Address":"700 16th St., Suite A","City":"Denver","State_Province":"CO","Country":"US","Postcode":"802023229","Phone_Number":"303-534-1096","Timezone":"GMT-07:00 America/Denver","Longitude":-104.98999999999999,"Latitude":39.75}},{"type":"Feature","id":123,"geometry":{"type":"Point","coordinates":[-104.97999999999996,39.750000000000057]},"properties":{"OBJECTID":123,"Brand":"Starbucks","Store_Number":"74282-65040","Store_Name":"Safeway - Denver #2246","Ownership_Type":"Licensed","Street_Address":"757 E 20th Ave","City":"Denver","State_Province":"CO","Country":"US","Postcode":"802053278","Phone_Number":"303-861-8169","Timezone":"GMT-07:00 America/Denver","Longitude":-104.98,"Latitude":39.75}},{"type":"Feature","id":124,"geometry":{"type":"Point","coordinates":[-104.98999999999995,39.710000000000036]},"properties":{"OBJECTID":124,"Brand":"Starbucks","Store_Number":"10351-99161","Store_Name":"Alameda & Broadway- Denver","Ownership_Type":"Company Owned","Street_Address":"381 S Broadway","City":"Denver","State_Province":"CO","Country":"US","Postcode":"802091522","Phone_Number":"303-722-1002","Timezone":"GMT-07:00 America/Denver","Longitude":-104.98999999999999,"Latitude":39.710000000000001}},{"type":"Feature","id":125,"geometry":{"type":"Point","coordinates":[-104.96999999999997,39.680000000000064]},"properties":{"OBJECTID":125,"Brand":"Starbucks","Store_Number":"10261-100356","Store_Name":"Franklin & Evans-Denver","Ownership_Type":"Company Owned","Street_Address":"1605 E Evans Ave","City":"Denver","State_Province":"CO","Country":"US","Postcode":"802104608","Phone_Number":"303-722-2901","Timezone":"GMT-07:00 America/Denver","Longitude":-104.97,"Latitude":39.68}},{"type":"Feature","id":126,"geometry":{"type":"Point","coordinates":[-104.91999999999996,39.740000000000066]},"properties":{"OBJECTID":126,"Brand":"Starbucks","Store_Number":"74705-96758","Store_Name":"Safeway-Denver #2714","Ownership_Type":"Licensed","Street_Address":"6220 E 14th St, Denver Marriott City Center","City":"Denver","State_Province":"CO","Country":"US","Postcode":"802202747","Phone_Number":"303-242-3523","Timezone":"GMT-07:00 America/Denver","Longitude":-104.92,"Latitude":39.740000000000002}},{"type":"Feature","id":127,"geometry":{"type":"Point","coordinates":[-104.98999999999995,39.750000000000057]},"properties":{"OBJECTID":127,"Brand":"Starbucks","Store_Number":"75506-33861","Store_Name":"Denver Marriott CC - Lobby","Ownership_Type":"Licensed","Street_Address":"1701 California Street, The Shops at 6th and Broadway","City":"Denver","State_Province":"CO","Country":"US","Postcode":"802023402","Phone_Number":"303-297-1300","Timezone":"GMT-07:00 America/Denver","Longitude":-104.98999999999999,"Latitude":39.75}},{"type":"Feature","id":128,"geometry":{"type":"Point","coordinates":[-104.98999999999995,39.730000000000075]},"properties":{"OBJECTID":128,"Brand":"Starbucks","Store_Number":"6324-9153","Store_Name":"6th & Lincoln","Ownership_Type":"Company Owned","Street_Address":"575 Lincoln St, Suite A","City":"Denver","State_Province":"CO","Country":"US","Postcode":"802033469","Phone_Number":"303-831-4996","Timezone":"GMT-07:00 America/Denver","Longitude":-104.98999999999999,"Latitude":39.729999999999997}},{"type":"Feature","id":129,"geometry":{"type":"Point","coordinates":[-104.92999999999995,39.710000000000036]},"properties":{"OBJECTID":129,"Brand":"Starbucks","Store_Number":"12848-95170","Store_Name":"King Soopers-Denver #124","Ownership_Type":"Licensed","Street_Address":"4600 Leetsdale Dr","City":"Denver","State_Province":"CO","Country":"US","Postcode":"802461311","Phone_Number":"303-320-3100","Timezone":"GMT-07:00 America/Denver","Longitude":-104.93000000000001,"Latitude":39.710000000000001}},{"type":"Feature","id":130,"geometry":{"type":"Point","coordinates":[-104.99999999999994,39.750000000000057]},"properties":{"OBJECTID":130,"Brand":"Starbucks","Store_Number":"78024-107376","Store_Name":"The Curtis Hotel Lobby","Ownership_Type":"Licensed","Street_Address":"1405 Curtis St","City":"Denver","State_Province":"CO","Country":"US","Postcode":"802022349","Phone_Number":"720-889-4730","Timezone":"GMT-07:00 America/Denver","Longitude":-105,"Latitude":39.75}},{"type":"Feature","id":131,"geometry":{"type":"Point","coordinates":[-104.89999999999998,39.760000000000048]},"properties":{"OBJECTID":131,"Brand":"Starbucks","Store_Number":"2817-86203","Store_Name":"Stapleton TC-29th & Quebec","Ownership_Type":"Company Owned","Street_Address":"7304 E. 29th Ave","City":"Denver","State_Province":"CO","Country":"US","Postcode":"802382699","Phone_Number":"303-322-2477","Timezone":"GMT-07:00 America/Denver","Longitude":-104.90000000000001,"Latitude":39.759999999999998}},{"type":"Feature","id":132,"geometry":{"type":"Point","coordinates":[-104.96999999999997,39.740000000000066]},"properties":{"OBJECTID":132,"Brand":"Starbucks","Store_Number":"5425-1281","Store_Name":"18th & Franklin - Denver, CO","Ownership_Type":"Company Owned","Street_Address":"1600 E 18th Ave","City":"Denver","State_Province":"CO","Country":"US","Postcode":"802181202","Phone_Number":"(303) 320-5518","Timezone":"GMT-07:00 America/Denver","Longitude":-104.97,"Latitude":39.740000000000002}},{"type":"Feature","id":133,"geometry":{"type":"Point","coordinates":[-104.90999999999997,39.650000000000034]},"properties":{"OBJECTID":133,"Brand":"Starbucks","Store_Number":"9193-151286","Store_Name":"King Soopers-Denver, CO #26","Ownership_Type":"Licensed","Street_Address":"6470 E Hampden Ave","City":"Denver","State_Province":"CO","Country":"US","Postcode":"802227605","Phone_Number":"303-758-1210","Timezone":"GMT-07:00 America/Denver","Longitude":-104.91,"Latitude":39.649999999999999}},{"type":"Feature","id":134,"geometry":{"type":"Point","coordinates":[-104.95999999999998,39.720000000000027]},"properties":{"OBJECTID":134,"Brand":"Starbucks","Store_Number":"237-230005","Store_Name":"3rd and Columbine-Cherry Creek","Ownership_Type":"Company Owned","Street_Address":"250 Columbine, 160","City":"Denver","State_Province":"CO","Country":"US","Postcode":"80206","Phone_Number":"3033319910","Timezone":"GMT-07:00 America/Denver","Longitude":-104.95999999999999,"Latitude":39.719999999999999}},{"type":"Feature","id":135,"geometry":{"type":"Point","coordinates":[-105.05999999999995,39.750000000000057]},"properties":{"OBJECTID":135,"Brand":"Starbucks","Store_Number":"76782-108571","Store_Name":"Target Edgewater T-2225","Ownership_Type":"Licensed","Street_Address":"1985 Sheridan Blvd, Riverwalk at Edwards","City":"Edgewater","State_Province":"CO","Country":"US","Postcode":"802141325","Phone_Number":"720-374-3665","Timezone":"GMT-07:00 America/Denver","Longitude":-105.06,"Latitude":39.75}},{"type":"Feature","id":136,"geometry":{"type":"Point","coordinates":[-104.85999999999996,39.540000000000077]},"properties":{"OBJECTID":136,"Brand":"Starbucks","Store_Number":"17563-172724","Store_Name":"Lincoln & Oswego, Centennial","Ownership_Type":"Company Owned","Street_Address":"9854 Zenith Meridian Drive, Suite C","City":"Englewood","State_Province":"CO","Country":"US","Postcode":"80112","Phone_Number":"3036629499","Timezone":"GMT-07:00 America/Denver","Longitude":-104.86,"Latitude":39.539999999999999}},{"type":"Feature","id":137,"geometry":{"type":"Point","coordinates":[-104.97999999999996,39.650000000000034]},"properties":{"OBJECTID":137,"Brand":"Starbucks","Store_Number":"74791-99277","Store_Name":"Safeway - Englewood #17","Ownership_Type":"Licensed","Street_Address":"201 E Jefferson Ave","City":"Englewood","State_Province":"CO","Country":"US","Postcode":"801133726","Phone_Number":"303-781-0463","Timezone":"GMT-07:00 America/Denver","Longitude":-104.98,"Latitude":39.649999999999999}},{"type":"Feature","id":138,"geometry":{"type":"Point","coordinates":[-104.98999999999995,39.650000000000034]},"properties":{"OBJECTID":138,"Brand":"Starbucks","Store_Number":"22796-224831","Store_Name":"King Soopers - Englewood #65","Ownership_Type":"Licensed","Street_Address":"101 Englewood Pkwy","City":"Englewood","State_Province":"CO","Country":"US","Postcode":"80110","Phone_Number":"303-761-0013","Timezone":"GMT-07:00 America/Denver","Longitude":-104.98999999999999,"Latitude":39.649999999999999}},{"type":"Feature","id":139,"geometry":{"type":"Point","coordinates":[-105.02999999999997,39.630000000000052]},"properties":{"OBJECTID":139,"Brand":"Starbucks","Store_Number":"18651-103417","Store_Name":"King Soopers-Englewood #109","Ownership_Type":"Licensed","Street_Address":"5050 S Federal Blvd","City":"Englewood","State_Province":"CO","Country":"US","Postcode":"801106361","Phone_Number":"303-798-2521","Timezone":"GMT-07:00 America/Denver","Longitude":-105.03,"Latitude":39.630000000000003}},{"type":"Feature","id":140,"geometry":{"type":"Point","coordinates":[-104.95999999999998,39.650000000000034]},"properties":{"OBJECTID":140,"Brand":"Starbucks","Store_Number":"15382-192845","Store_Name":"King Sooper's - Englewood #111","Ownership_Type":"Licensed","Street_Address":"3495 S University Blvd.","City":"Englewood","State_Province":"CO","Country":"US","Postcode":"80113","Phone_Number":"303-806-2760","Timezone":"GMT-07:00 America/Denver","Longitude":-104.95999999999999,"Latitude":39.649999999999999}},{"type":"Feature","id":141,"geometry":{"type":"Point","coordinates":[-104.98999999999995,39.640000000000043]},"properties":{"OBJECTID":141,"Brand":"Starbucks","Store_Number":"11476-105389","Store_Name":"Broadway & Quincy, Englewood","Ownership_Type":"Company Owned","Street_Address":"4298 S. Broadway","City":"Englewood","State_Province":"CO","Country":"US","Postcode":"801134635","Phone_Number":"303 781-0600","Timezone":"GMT-07:00 America/Denver","Longitude":-104.98999999999999,"Latitude":39.640000000000001}},{"type":"Feature","id":142,"geometry":{"type":"Point","coordinates":[-104.98999999999995,39.660000000000025]},"properties":{"OBJECTID":142,"Brand":"Starbucks","Store_Number":"10674-100914","Store_Name":"Broadway and Bates Ave","Ownership_Type":"Company Owned","Street_Address":"2896 S Broadway","City":"Englewood","State_Province":"CO","Country":"US","Postcode":"801131525","Phone_Number":"303-761-1457","Timezone":"GMT-07:00 America/Denver","Longitude":-104.98999999999999,"Latitude":39.659999999999997}},{"type":"Feature","id":143,"geometry":{"type":"Point","coordinates":[-104.87999999999994,39.590000000000032]},"properties":{"OBJECTID":143,"Brand":"Starbucks","Store_Number":"76165-93492","Store_Name":"Target Arapahoe T-147","Ownership_Type":"Licensed","Street_Address":"6767 S Clinton St","City":"Englewood","State_Province":"CO","Country":"US","Postcode":"801123617","Phone_Number":"303-790-2583","Timezone":"GMT-07:00 America/Denver","Longitude":-104.88,"Latitude":39.590000000000003}},{"type":"Feature","id":144,"geometry":{"type":"Point","coordinates":[-104.89999999999998,39.60000000000008]},"properties":{"OBJECTID":144,"Brand":"Starbucks","Store_Number":"74140-17674","Store_Name":"Safeway-Englewood #0008","Ownership_Type":"Licensed","Street_Address":"7375 E Arapahoe Road","City":"Englewood","State_Province":"CO","Country":"US","Postcode":"801121305","Phone_Number":"303-771-8707","Timezone":"GMT-07:00 America/Denver","Longitude":-104.90000000000001,"Latitude":39.600000000000001}},{"type":"Feature","id":145,"geometry":{"type":"Point","coordinates":[-105.33999999999997,39.650000000000034]},"properties":{"OBJECTID":145,"Brand":"Starbucks","Store_Number":"74879-100329","Store_Name":"Safeway - Evergreen #10","Ownership_Type":"Licensed","Street_Address":"3851 S. Hwy #74","City":"Evergreen","State_Province":"CO","Country":"US","Postcode":"80439","Phone_Number":"303-673-6625","Timezone":"GMT-07:00 America/Denver","Longitude":-105.34,"Latitude":39.649999999999999}},{"type":"Feature","id":146,"geometry":{"type":"Point","coordinates":[-105.35999999999996,39.690000000000055]},"properties":{"OBJECTID":146,"Brand":"Starbucks","Store_Number":"73753-100345","Store_Name":"King Soopers Bergen Park #64","Ownership_Type":"Licensed","Street_Address":"1173 Bergen Pkwy","City":"Evergreen","State_Province":"CO","Country":"US","Postcode":"804399522","Phone_Number":null,"Timezone":"GMT-07:00 America/Denver","Longitude":-105.36,"Latitude":39.689999999999998}},{"type":"Feature","id":147,"geometry":{"type":"Point","coordinates":[-105.01999999999998,39.880000000000052]},"properties":{"OBJECTID":147,"Brand":"Starbucks","Store_Number":"74109-24367","Store_Name":"Safeway-Federal Hieghts #1635","Ownership_Type":"Licensed","Street_Address":"10300 Federal Blvd.","City":"Federal Heights","State_Province":"CO","Country":"US","Postcode":"802606101","Phone_Number":"303-469-0374","Timezone":"GMT-07:00 America/Denver","Longitude":-105.02,"Latitude":39.880000000000003}},{"type":"Feature","id":148,"geometry":{"type":"Point","coordinates":[-104.93999999999994,39.710000000000036]},"properties":{"OBJECTID":148,"Brand":"Starbucks","Store_Number":"76123-78584","Store_Name":"Super Target Glendale ST-1806","Ownership_Type":"Licensed","Street_Address":"4301 E Virginia Ave","City":"Glendale","State_Province":"CO","Country":"US","Postcode":"802461595","Phone_Number":"303-209-0182","Timezone":"GMT-07:00 America/Denver","Longitude":-104.94,"Latitude":39.710000000000001}},{"type":"Feature","id":149,"geometry":{"type":"Point","coordinates":[-104.93999999999994,39.700000000000045]},"properties":{"OBJECTID":149,"Brand":"Starbucks","Store_Number":"277-198","Store_Name":"Colorado Blvd. (B&N)","Ownership_Type":"Company Owned","Street_Address":"960 S. Colorado Blvd.","City":"Glendale","State_Province":"CO","Country":"US","Postcode":"802462542","Phone_Number":"3037598219","Timezone":"GMT-07:00 America/Denver","Longitude":-104.94,"Latitude":39.700000000000003}},{"type":"Feature","id":150,"geometry":{"type":"Point","coordinates":[-105.21999999999997,39.750000000000057]},"properties":{"OBJECTID":150,"Brand":"Starbucks","Store_Number":"25490-228586","Store_Name":"Sodexo @ Colorado School of Mines","Ownership_Type":"Licensed","Street_Address":"1200 16th Street","City":"Golden","State_Province":"CO","Country":"US","Postcode":"80401","Phone_Number":null,"Timezone":"GMT-07:00 America/Denver","Longitude":-105.22,"Latitude":39.75}},{"type":"Feature","id":151,"geometry":{"type":"Point","coordinates":[-105.19999999999999,39.740000000000066]},"properties":{"OBJECTID":151,"Brand":"Starbucks","Store_Number":"22818-220809","Store_Name":"17224 So. Golden Rd","Ownership_Type":"Company Owned","Street_Address":"17224 So. Golden Rd, TBD","City":"Golden","State_Province":"CO","Country":"US","Postcode":"80401","Phone_Number":"3032781034","Timezone":"GMT-07:00 America/Denver","Longitude":-105.2,"Latitude":39.740000000000002}},{"type":"Feature","id":152,"geometry":{"type":"Point","coordinates":[-105.21999999999997,39.750000000000057]},"properties":{"OBJECTID":152,"Brand":"Starbucks","Store_Number":"6425-49679","Store_Name":"13th St & Washington Ave","Ownership_Type":"Company Owned","Street_Address":"1301 Washington Avenue, Unit A","City":"Golden","State_Province":"CO","Country":"US","Postcode":"804016137","Phone_Number":"303-277-1605","Timezone":"GMT-07:00 America/Denver","Longitude":-105.22,"Latitude":39.75}},{"type":"Feature","id":153,"geometry":{"type":"Point","coordinates":[-105.22999999999996,39.770000000000039]},"properties":{"OBJECTID":153,"Brand":"Starbucks","Store_Number":"10722-102751","Store_Name":"Highway 93 & Washington, Golden","Ownership_Type":"Company Owned","Street_Address":"114 N RUBEY DRIVE","City":"Golden","State_Province":"CO","Country":"US","Postcode":"804032455","Phone_Number":"303 277-0086","Timezone":"GMT-07:00 America/Denver","Longitude":-105.23,"Latitude":39.770000000000003}},{"type":"Feature","id":154,"geometry":{"type":"Point","coordinates":[-105.21999999999997,39.750000000000057]},"properties":{"OBJECTID":154,"Brand":"Starbucks","Store_Number":"74355-85884","Store_Name":"Safeway-Golden #322","Ownership_Type":"Licensed","Street_Address":"1701 Jackson St","City":"Golden","State_Province":"CO","Country":"US","Postcode":"804011925","Phone_Number":"303-278-1861","Timezone":"GMT-07:00 America/Denver","Longitude":-105.22,"Latitude":39.75}},{"type":"Feature","id":155,"geometry":{"type":"Point","coordinates":[-105.32999999999998,39.700000000000045]},"properties":{"OBJECTID":155,"Brand":"Starbucks","Store_Number":"8626-103726","Store_Name":"Hwy 74 & Hotel Way-Evergreen, CO","Ownership_Type":"Company Owned","Street_Address":"29057 Hotel Way","City":"Golden","State_Province":"CO","Country":"US","Postcode":"80401","Phone_Number":"303-526-9439","Timezone":"GMT-07:00 America/Denver","Longitude":-105.33,"Latitude":39.700000000000003}},{"type":"Feature","id":156,"geometry":{"type":"Point","coordinates":[-105.18999999999994,39.740000000000066]},"properties":{"OBJECTID":156,"Brand":"Starbucks","Store_Number":"70077-138824","Store_Name":"King Soopers-Golden, CO #82","Ownership_Type":"Licensed","Street_Address":"17171 South Golden Road","City":"Golden","State_Province":"CO","Country":"US","Postcode":"804017334","Phone_Number":null,"Timezone":"GMT-07:00 America/Denver","Longitude":-105.19,"Latitude":39.740000000000002}},{"type":"Feature","id":157,"geometry":{"type":"Point","coordinates":[-104.87999999999994,39.630000000000052]},"properties":{"OBJECTID":157,"Brand":"Starbucks","Store_Number":"75001-29516","Store_Name":"King Soopers-Greenwood Village #100","Ownership_Type":"Licensed","Street_Address":"4910 S. Yosemite","City":"Greenwood Village","State_Province":"CO","Country":"US","Postcode":"801111383","Phone_Number":"303-773-3342","Timezone":"GMT-07:00 America/Denver","Longitude":-104.88,"Latitude":39.630000000000003}},{"type":"Feature","id":158,"geometry":{"type":"Point","coordinates":[-104.88999999999999,39.61000000000007]},"properties":{"OBJECTID":158,"Brand":"Starbucks","Store_Number":"6776-78625","Store_Name":"Orchard & Willow","Ownership_Type":"Company Owned","Street_Address":"8745 E. Orchard Road, 510, Denver Tech Center","City":"Greenwood Village","State_Province":"CO","Country":"US","Postcode":"801115025","Phone_Number":"720-493-1996","Timezone":"GMT-07:00 America/Denver","Longitude":-104.89,"Latitude":39.609999999999999}},{"type":"Feature","id":159,"geometry":{"type":"Point","coordinates":[-104.89999999999998,39.620000000000061]},"properties":{"OBJECTID":159,"Brand":"Starbucks","Store_Number":"5722-8007","Store_Name":"Belleview and Ulster - DTC","Ownership_Type":"Company Owned","Street_Address":"8000 E Belleview, Suite B10","City":"Greenwood Village","State_Province":"CO","Country":"US","Postcode":"801112636","Phone_Number":"303-221-6236","Timezone":"GMT-07:00 America/Denver","Longitude":-104.90000000000001,"Latitude":39.619999999999997}},{"type":"Feature","id":160,"geometry":{"type":"Point","coordinates":[-104.91999999999996,39.61000000000007]},"properties":{"OBJECTID":160,"Brand":"Starbucks","Store_Number":"75005-82269","Store_Name":"King Soopers-Greenwood Village #96","Ownership_Type":"Licensed","Street_Address":"6000 S Holly","City":"Greenwood Village","State_Province":"CO","Country":"US","Postcode":"801114251","Phone_Number":"720-488-3401","Timezone":"GMT-07:00 America/Denver","Longitude":-104.92,"Latitude":39.609999999999999}},{"type":"Feature","id":161,"geometry":{"type":"Point","coordinates":[-104.87999999999994,39.630000000000052]},"properties":{"OBJECTID":161,"Brand":"Starbucks","Store_Number":"252-145","Store_Name":"Belleview & Yosemite","Ownership_Type":"Company Owned","Street_Address":"4920 S Yosemite, Ste C7","City":"Greenwood Village","State_Province":"CO","Country":"US","Postcode":"801111352","Phone_Number":"(303) 796-7003","Timezone":"GMT-07:00 America/Denver","Longitude":-104.88,"Latitude":39.630000000000003}},{"type":"Feature","id":162,"geometry":{"type":"Point","coordinates":[-104.88999999999999,39.60000000000008]},"properties":{"OBJECTID":162,"Brand":"Starbucks","Store_Number":"249-195","Store_Name":"Arapahoe Market Place","Ownership_Type":"Company Owned","Street_Address":"8547 E Arapahoe Rd, Ste 1","City":"Greenwood Village","State_Province":"CO","Country":"US","Postcode":"801121436","Phone_Number":"(303) 689-0728","Timezone":"GMT-07:00 America/Denver","Longitude":-104.89,"Latitude":39.600000000000001}},{"type":"Feature","id":163,"geometry":{"type":"Point","coordinates":[-104.87999999999994,39.60000000000008]},"properties":{"OBJECTID":163,"Brand":"Starbucks","Store_Number":"17748-173944","Store_Name":"Arapahoe Rd & S Boston St","Ownership_Type":"Company Owned","Street_Address":"9301 East Arapahoe Rd","City":"Greenwood Village","State_Province":"CO","Country":"US","Postcode":"80111","Phone_Number":"3037901299","Timezone":"GMT-07:00 America/Denver","Longitude":-104.88,"Latitude":39.600000000000001}},{"type":"Feature","id":164,"geometry":{"type":"Point","coordinates":[-105.00999999999999,39.550000000000068]},"properties":{"OBJECTID":164,"Brand":"Starbucks","Store_Number":"5112-147685","Store_Name":"Target Highlands Ranch T-2716","Ownership_Type":"Licensed","Street_Address":"1265 SGT Jon Stiles Dr","City":"Hghlands Ranch","State_Province":"CO","Country":"US","Postcode":"801292263","Phone_Number":"303-323-4971","Timezone":"GMT-07:00 America/Denver","Longitude":-105.01000000000001,"Latitude":39.549999999999997}},{"type":"Feature","id":165,"geometry":{"type":"Point","coordinates":[-104.93999999999994,39.540000000000077]},"properties":{"OBJECTID":165,"Brand":"Starbucks","Store_Number":"6339-180484","Store_Name":"Highlands Ranch & University Blvd","Ownership_Type":"Company Owned","Street_Address":"9360 S. Colorado Blvd.","City":"Highlands Ranch","State_Province":"CO","Country":"US","Postcode":"80126","Phone_Number":"7203481026","Timezone":"GMT-07:00 America/Denver","Longitude":-104.94,"Latitude":39.539999999999999}},{"type":"Feature","id":166,"geometry":{"type":"Point","coordinates":[-104.90999999999997,39.560000000000059]},"properties":{"OBJECTID":166,"Brand":"Starbucks","Store_Number":"75009-86329","Store_Name":"King Soopers-Highlands Ranch #110","Ownership_Type":"Licensed","Street_Address":"8673 S Quebec, Highlands Ranch Town Center North","City":"Highlands Ranch","State_Province":"CO","Country":"US","Postcode":"80126","Phone_Number":"303-683-4994","Timezone":"GMT-07:00 America/Denver","Longitude":-104.91,"Latitude":39.560000000000002}},{"type":"Feature","id":167,"geometry":{"type":"Point","coordinates":[-104.99999999999994,39.550000000000068]},"properties":{"OBJECTID":167,"Brand":"Starbucks","Store_Number":"5325-165564","Store_Name":"Highlands Ranch Town Center","Ownership_Type":"Company Owned","Street_Address":"870 CPL Max Donahue Lane, Suite A","City":"Highlands Ranch","State_Province":"CO","Country":"US","Postcode":"80129","Phone_Number":"3034710775","Timezone":"GMT-07:00 America/Denver","Longitude":-105,"Latitude":39.549999999999997}},{"type":"Feature","id":168,"geometry":{"type":"Point","coordinates":[-105.00999999999999,39.540000000000077]},"properties":{"OBJECTID":168,"Brand":"Starbucks","Store_Number":"75002-34139","Store_Name":"King Soopers - Highlands Ranch #8","Ownership_Type":"Licensed","Street_Address":"2205 Wildcat Reserve Pkwy","City":"Highlands Ranch","State_Province":"CO","Country":"US","Postcode":"801295496","Phone_Number":"720-344-4503","Timezone":"GMT-07:00 America/Denver","Longitude":-105.01000000000001,"Latitude":39.539999999999999}},{"type":"Feature","id":169,"geometry":{"type":"Point","coordinates":[-104.98999999999995,39.550000000000068]},"properties":{"OBJECTID":169,"Brand":"Starbucks","Store_Number":"74141-17714","Store_Name":"Safeway-Highlands Ranch #1480","Ownership_Type":"Licensed","Street_Address":"9255 S Broadway","City":"Highlands Ranch","State_Province":"CO","Country":"US","Postcode":"801295631","Phone_Number":"303-683-1983","Timezone":"GMT-07:00 America/Denver","Longitude":-104.98999999999999,"Latitude":39.549999999999997}},{"type":"Feature","id":170,"geometry":{"type":"Point","coordinates":[-104.93999999999994,39.53000000000003]},"properties":{"OBJECTID":170,"Brand":"Starbucks","Store_Number":"72853-92946","Store_Name":"King Soopers-Highlands Ranch #108","Ownership_Type":"Licensed","Street_Address":"4000 Red Cedar Drive","City":"Highlands Ranch","State_Province":"CO","Country":"US","Postcode":"801268067","Phone_Number":"303-683-7383","Timezone":"GMT-07:00 America/Denver","Longitude":-104.94,"Latitude":39.530000000000001}},{"type":"Feature","id":171,"geometry":{"type":"Point","coordinates":[-104.96999999999997,39.57000000000005]},"properties":{"OBJECTID":171,"Brand":"Starbucks","Store_Number":"76124-88404","Store_Name":"Target Highlands Ranch T-271","Ownership_Type":"Licensed","Street_Address":"1950 E County Line Rd","City":"Highlands Ranch","State_Province":"CO","Country":"US","Postcode":"801262437","Phone_Number":"303-797-1911","Timezone":"GMT-07:00 America/Denver","Longitude":-104.97,"Latitude":39.57}},{"type":"Feature","id":172,"geometry":{"type":"Point","coordinates":[-105.03999999999996,39.550000000000068]},"properties":{"OBJECTID":172,"Brand":"Starbucks","Store_Number":"11995-106752","Store_Name":"W Towne Center Dr & Santa Fe Dr","Ownership_Type":"Company Owned","Street_Address":"9135 Commerce Center Circle","City":"Highlands Ranch","State_Province":"CO","Country":"US","Postcode":"801291560","Phone_Number":"303 346-0397","Timezone":"GMT-07:00 America/Denver","Longitude":-105.04000000000001,"Latitude":39.549999999999997}},{"type":"Feature","id":173,"geometry":{"type":"Point","coordinates":[-104.93999999999994,39.53000000000003]},"properties":{"OBJECTID":173,"Brand":"Starbucks","Store_Number":"11109-102639","Store_Name":"Wildcat Reserve & Fairview-CO","Ownership_Type":"Company Owned","Street_Address":"3982 Red Cedar Dr, Idaho Springs Retail Center","City":"Highlands Ranch","State_Province":"CO","Country":"US","Postcode":"801268059","Phone_Number":"303-791-5526","Timezone":"GMT-07:00 America/Denver","Longitude":-104.94,"Latitude":39.530000000000001}},{"type":"Feature","id":174,"geometry":{"type":"Point","coordinates":[-105.09999999999997,39.740000000000066]},"properties":{"OBJECTID":174,"Brand":"Starbucks","Store_Number":"74295-65079","Store_Name":"Safeway - Lakewood #344","Ownership_Type":"Licensed","Street_Address":"9160 West Colfax Avenue","City":"Lakewood","State_Province":"CO","Country":"US","Postcode":"802154024","Phone_Number":"303-232-4989","Timezone":"GMT-07:00 America/Denver","Longitude":-105.09999999999999,"Latitude":39.740000000000002}},{"type":"Feature","id":175,"geometry":{"type":"Point","coordinates":[-105.07999999999998,39.680000000000064]},"properties":{"OBJECTID":175,"Brand":"Starbucks","Store_Number":"5718-241748","Store_Name":"S Wadsworth and W Jewel","Ownership_Type":"Company Owned","Street_Address":"1897 S. Wadsworth Blvd","City":"Lakewood","State_Province":"CO","Country":"US","Postcode":"80232","Phone_Number":null,"Timezone":"GMT-07:00 America/Denver","Longitude":-105.08,"Latitude":39.68}},{"type":"Feature","id":176,"geometry":{"type":"Point","coordinates":[-105.07999999999998,39.710000000000036]},"properties":{"OBJECTID":176,"Brand":"Starbucks","Store_Number":"15145-156124","Store_Name":"Target Lakewood T-2717","Ownership_Type":"Licensed","Street_Address":"456 S Vance St","City":"Lakewood","State_Province":"CO","Country":"US","Postcode":"802263305","Phone_Number":"303-209-7749","Timezone":"GMT-07:00 America/Denver","Longitude":-105.08,"Latitude":39.710000000000001}},{"type":"Feature","id":177,"geometry":{"type":"Point","coordinates":[-105.07999999999998,39.720000000000027]},"properties":{"OBJECTID":177,"Brand":"Starbucks","Store_Number":"6998-92280","Store_Name":"1st & Wadsworth-Lakewood","Ownership_Type":"Company Owned","Street_Address":"92 Wadsworth Blvd","City":"Lakewood","State_Province":"CO","Country":"US","Postcode":"802261564","Phone_Number":"303-202-2787","Timezone":"GMT-07:00 America/Denver","Longitude":-105.08,"Latitude":39.719999999999999}},{"type":"Feature","id":178,"geometry":{"type":"Point","coordinates":[-105.10999999999996,39.740000000000066]},"properties":{"OBJECTID":178,"Brand":"Starbucks","Store_Number":"11111-102552","Store_Name":"Colfax & Kipling, Lakewood, CO","Ownership_Type":"Company Owned","Street_Address":"9998 W Colfax Ave","City":"Lakewood","State_Province":"CO","Country":"US","Postcode":"802153900","Phone_Number":"303-232-3209","Timezone":"GMT-07:00 America/Denver","Longitude":-105.11,"Latitude":39.740000000000002}},{"type":"Feature","id":179,"geometry":{"type":"Point","coordinates":[-105.11999999999995,39.690000000000055]},"properties":{"OBJECTID":179,"Brand":"Starbucks","Store_Number":"8915-93534","Store_Name":"Florida & Kipling","Ownership_Type":"Company Owned","Street_Address":"10611 W Florida Ave","City":"Lakewood","State_Province":"CO","Country":"US","Postcode":"802325087","Phone_Number":"303-984-5194","Timezone":"GMT-07:00 America/Denver","Longitude":-105.12,"Latitude":39.689999999999998}},{"type":"Feature","id":180,"geometry":{"type":"Point","coordinates":[-105.11999999999995,39.690000000000055]},"properties":{"OBJECTID":180,"Brand":"Starbucks","Store_Number":"75007-83227","Store_Name":"King Soopers-Lakewood #59","Ownership_Type":"Licensed","Street_Address":"1545 S Kipling Ct","City":"Lakewood","State_Province":"CO","Country":"US","Postcode":"802326331","Phone_Number":"303-989-8180","Timezone":"GMT-07:00 America/Denver","Longitude":-105.12,"Latitude":39.689999999999998}},{"type":"Feature","id":181,"geometry":{"type":"Point","coordinates":[-105.14999999999998,39.700000000000045]},"properties":{"OBJECTID":181,"Brand":"Starbucks","Store_Number":"74373-82283","Store_Name":"Safeway-Lakewood #41","Ownership_Type":"Licensed","Street_Address":"13111 W Alameda Pkwy","City":"Lakewood","State_Province":"CO","Country":"US","Postcode":"802283108","Phone_Number":"303-980-9343","Timezone":"GMT-07:00 America/Denver","Longitude":-105.15000000000001,"Latitude":39.700000000000003}},{"type":"Feature","id":182,"geometry":{"type":"Point","coordinates":[-105.08999999999997,39.710000000000036]},"properties":{"OBJECTID":182,"Brand":"Starbucks","Store_Number":"79344-96655","Store_Name":"King Soopers-Lakewood #127","Ownership_Type":"Licensed","Street_Address":"7984 W Alameda Ave","City":"Lakewood","State_Province":"CO","Country":"US","Postcode":"802263025","Phone_Number":"303-914-2060","Timezone":"GMT-07:00 America/Denver","Longitude":-105.09,"Latitude":39.710000000000001}},{"type":"Feature","id":183,"geometry":{"type":"Point","coordinates":[-105.11999999999995,39.680000000000064]},"properties":{"OBJECTID":183,"Brand":"Starbucks","Store_Number":"79619-101955","Store_Name":"Safeway - Lakewood #2342","Ownership_Type":"Licensed","Street_Address":"11088 West Jewell Ave","City":"Lakewood","State_Province":"CO","Country":"US","Postcode":"802326139","Phone_Number":"303-989-8810","Timezone":"GMT-07:00 America/Denver","Longitude":-105.12,"Latitude":39.68}},{"type":"Feature","id":184,"geometry":{"type":"Point","coordinates":[-105.13999999999999,39.700000000000045]},"properties":{"OBJECTID":184,"Brand":"Starbucks","Store_Number":"2825-209726","Store_Name":"12408 West Alameda Parkway","Ownership_Type":"Company Owned","Street_Address":"12408 W Alameda Parkway","City":"Lakewood","State_Province":"CO","Country":"US","Postcode":"80228","Phone_Number":"3037167105","Timezone":"GMT-07:00 America/Denver","Longitude":-105.14,"Latitude":39.700000000000003}},{"type":"Feature","id":185,"geometry":{"type":"Point","coordinates":[-105.15999999999997,39.730000000000075]},"properties":{"OBJECTID":185,"Brand":"Starbucks","Store_Number":"72690-76606","Store_Name":"Super Target Lakewood ST-1500","Ownership_Type":"Licensed","Street_Address":"14500 W Colfax Ave, Unit B1","City":"Lakewood","State_Province":"CO","Country":"US","Postcode":"804013203","Phone_Number":"303-273-9940","Timezone":"GMT-07:00 America/Denver","Longitude":-105.16,"Latitude":39.729999999999997}},{"type":"Feature","id":186,"geometry":{"type":"Point","coordinates":[-105.12999999999994,39.710000000000036]},"properties":{"OBJECTID":186,"Brand":"Starbucks","Store_Number":"10863-103229","Store_Name":"S Union Blvd - Lakewood","Ownership_Type":"Company Owned","Street_Address":"150 South Union Boulevard","City":"Lakewood","State_Province":"CO","Country":"US","Postcode":"802282235","Phone_Number":"303-985-4368","Timezone":"GMT-07:00 America/Denver","Longitude":-105.13,"Latitude":39.710000000000001}},{"type":"Feature","id":187,"geometry":{"type":"Point","coordinates":[-105.00999999999999,39.590000000000032]},"properties":{"OBJECTID":187,"Brand":"Starbucks","Store_Number":"79714-108618","Store_Name":"Safeway - Littleton #2791","Ownership_Type":"Licensed","Street_Address":"NWC Broadway at Mineral, Littleton Square","City":"Littleton","State_Province":"CO","Country":"US","Postcode":"80120","Phone_Number":"3032182101","Timezone":"GMT-07:00 America/Denver","Longitude":-105.01000000000001,"Latitude":39.590000000000003}},{"type":"Feature","id":188,"geometry":{"type":"Point","coordinates":[-104.98999999999995,39.61000000000007]},"properties":{"OBJECTID":188,"Brand":"Starbucks","Store_Number":"5410-1089","Store_Name":"Broadway & Littleton","Ownership_Type":"Company Owned","Street_Address":"50 W. Littleton Blvd., Unit 301","City":"Littleton","State_Province":"CO","Country":"US","Postcode":"801202491","Phone_Number":"(303) 798-2016","Timezone":"GMT-07:00 America/Denver","Longitude":-104.98999999999999,"Latitude":39.609999999999999}},{"type":"Feature","id":189,"geometry":{"type":"Point","coordinates":[-104.91999999999996,39.57000000000005]},"properties":{"OBJECTID":189,"Brand":"Starbucks","Store_Number":"9128-82271","Store_Name":"King Soopers-Centennial #63","Ownership_Type":"Licensed","Street_Address":"8200 S Holly","City":"Littleton","State_Province":"CO","Country":"US","Postcode":"801224012","Phone_Number":"303-779-4499","Timezone":"GMT-07:00 America/Denver","Longitude":-104.92,"Latitude":39.57}},{"type":"Feature","id":190,"geometry":{"type":"Point","coordinates":[-104.88999999999999,39.560000000000059]},"properties":{"OBJECTID":190,"Brand":"Starbucks","Store_Number":"5315-697","Store_Name":"County Line & Yosemite (B&N)","Ownership_Type":"Company Owned","Street_Address":"8374 South Willow Street","City":"Littleton","State_Province":"CO","Country":"US","Postcode":"801242844","Phone_Number":"(303) 706-1359","Timezone":"GMT-07:00 America/Denver","Longitude":-104.89,"Latitude":39.560000000000002}},{"type":"Feature","id":191,"geometry":{"type":"Point","coordinates":[-105.06999999999999,39.590000000000032]},"properties":{"OBJECTID":191,"Brand":"Starbucks","Store_Number":"23483-230641","Store_Name":"King Soopers - Littleton #41","Ownership_Type":"Licensed","Street_Address":"6760 Pierce Street","City":"Littleton","State_Province":"CO","Country":"US","Postcode":"80128","Phone_Number":"303-979-2280","Timezone":"GMT-07:00 America/Denver","Longitude":-105.06999999999999,"Latitude":39.590000000000003}},{"type":"Feature","id":192,"geometry":{"type":"Point","coordinates":[-105.07999999999998,39.57000000000005]},"properties":{"OBJECTID":192,"Brand":"Starbucks","Store_Number":"10316-4256","Store_Name":"Wadsworth & Chatfield","Ownership_Type":"Company Owned","Street_Address":"7403 West Chatfield","City":"Littleton","State_Province":"CO","Country":"US","Postcode":"801284561","Phone_Number":"303 948-1066","Timezone":"GMT-07:00 America/Denver","Longitude":-105.08,"Latitude":39.57}},{"type":"Feature","id":193,"geometry":{"type":"Point","coordinates":[-104.95999999999998,39.61000000000007]},"properties":{"OBJECTID":193,"Brand":"Starbucks","Store_Number":"239-191","Store_Name":"Cherry Hills","Ownership_Type":"Company Owned","Street_Address":"5910 South University Blvd., #D-3","City":"Littleton","State_Province":"CO","Country":"US","Postcode":"801212800","Phone_Number":"3037942966","Timezone":"GMT-07:00 America/Denver","Longitude":-104.95999999999999,"Latitude":39.609999999999999}},{"type":"Feature","id":194,"geometry":{"type":"Point","coordinates":[-105.08999999999997,39.61000000000007]},"properties":{"OBJECTID":194,"Brand":"Starbucks","Store_Number":"5342-105589","Store_Name":"Wadworth & Bowles, Littleton","Ownership_Type":"Company Owned","Street_Address":"6149 S Balsam Way, Jefferson Village","City":"Littleton","State_Province":"CO","Country":"US","Postcode":"801233061","Phone_Number":"303 972-6638","Timezone":"GMT-07:00 America/Denver","Longitude":-105.09,"Latitude":39.609999999999999}},{"type":"Feature","id":195,"geometry":{"type":"Point","coordinates":[-105.10999999999996,39.560000000000059]},"properties":{"OBJECTID":195,"Brand":"Starbucks","Store_Number":"6565-65640","Store_Name":"C-470 & Kipling","Ownership_Type":"Company Owned","Street_Address":"9956 W. Remington Place, A-1","City":"Littleton","State_Province":"CO","Country":"US","Postcode":"801286732","Phone_Number":"303-933-9052","Timezone":"GMT-07:00 America/Denver","Longitude":-105.11,"Latitude":39.560000000000002}},{"type":"Feature","id":196,"geometry":{"type":"Point","coordinates":[-104.98999999999995,39.61000000000007]},"properties":{"OBJECTID":196,"Brand":"Starbucks","Store_Number":"20276-203488","Store_Name":"King Soopers - Littleton #131","Ownership_Type":"Licensed","Street_Address":"100 W Littleton Blvd","City":"Littleton","State_Province":"CO","Country":"US","Postcode":"80120","Phone_Number":"303-615-3000","Timezone":"GMT-07:00 America/Denver","Longitude":-104.98999999999999,"Latitude":39.609999999999999}},{"type":"Feature","id":197,"geometry":{"type":"Point","coordinates":[-104.98999999999995,39.57000000000005]},"properties":{"OBJECTID":197,"Brand":"Starbucks","Store_Number":"16855-176087","Store_Name":"King Soopers-Littleton 122","Ownership_Type":"Licensed","Street_Address":"7901 S Broadway, Aspen Grove Lifestyle Center","City":"Littleton","State_Province":"CO","Country":"US","Postcode":"801222718","Phone_Number":"303-738-5700","Timezone":"GMT-07:00 America/Denver","Longitude":-104.98999999999999,"Latitude":39.57}},{"type":"Feature","id":198,"geometry":{"type":"Point","coordinates":[-105.02999999999997,39.590000000000032]},"properties":{"OBJECTID":198,"Brand":"Starbucks","Store_Number":"6569-61701","Store_Name":"Santa Fe & Aspen Grove Way","Ownership_Type":"Company Owned","Street_Address":"7301 Santa Fe Drive, Ste 310","City":"Littleton","State_Province":"CO","Country":"US","Postcode":"801202973","Phone_Number":"303-703-9560","Timezone":"GMT-07:00 America/Denver","Longitude":-105.03,"Latitude":39.590000000000003}},{"type":"Feature","id":199,"geometry":{"type":"Point","coordinates":[-105.01999999999998,39.620000000000061]},"properties":{"OBJECTID":199,"Brand":"Starbucks","Store_Number":"13490-98427","Store_Name":"Belleview & Prince- Littleton","Ownership_Type":"Company Owned","Street_Address":"2600 West Belleview Avenue, Suite #100","City":"Littleton","State_Province":"CO","Country":"US","Postcode":"80123","Phone_Number":"303 797-0431","Timezone":"GMT-07:00 America/Denver","Longitude":-105.02,"Latitude":39.619999999999997}},{"type":"Feature","id":200,"geometry":{"type":"Point","coordinates":[-104.87999999999994,39.540000000000077]},"properties":{"OBJECTID":200,"Brand":"Starbucks","Store_Number":"74139-17655","Store_Name":"Safeway-Littleton #1548","Ownership_Type":"Licensed","Street_Address":"9229 E.  Lincoln Ave","City":"Littleton","State_Province":"CO","Country":"US","Postcode":"801245502","Phone_Number":"303-649-9111","Timezone":"GMT-07:00 America/Denver","Longitude":-104.88,"Latitude":39.539999999999999}},{"type":"Feature","id":201,"geometry":{"type":"Point","coordinates":[-105.06999999999999,39.480000000000075]},"properties":{"OBJECTID":201,"Brand":"Starbucks","Store_Number":"74697-96759","Store_Name":"Safeway-Roxborough #2722","Ownership_Type":"Licensed","Street_Address":"8335 N Rampart Range Rd","City":"Littleton","State_Province":"CO","Country":"US","Postcode":"801259322","Phone_Number":"303-242-3563","Timezone":"GMT-07:00 America/Denver","Longitude":-105.06999999999999,"Latitude":39.479999999999997}},{"type":"Feature","id":202,"geometry":{"type":"Point","coordinates":[-105.07999999999998,39.57000000000005]},"properties":{"OBJECTID":202,"Brand":"Starbucks","Store_Number":"16916-176065","Store_Name":"King Soopers-Littleton #78","Ownership_Type":"Licensed","Street_Address":"8126 S Wadsworth Blvd","City":"Littleton","State_Province":"CO","Country":"US","Postcode":"801289118","Phone_Number":"720-644-6809","Timezone":"GMT-07:00 America/Denver","Longitude":-105.08,"Latitude":39.57}},{"type":"Feature","id":203,"geometry":{"type":"Point","coordinates":[-105.13999999999999,39.580000000000041]},"properties":{"OBJECTID":203,"Brand":"Starbucks","Store_Number":"5804-3137","Store_Name":"Ken Caryl & Alkire","Ownership_Type":"Company Owned","Street_Address":"12512 West Ken Caryl Ave, Governor's Plaza Center","City":"Littleton","State_Province":"CO","Country":"US","Postcode":"801273738","Phone_Number":"720-922-7941","Timezone":"GMT-07:00 America/Denver","Longitude":-105.14,"Latitude":39.579999999999998}},{"type":"Feature","id":204,"geometry":{"type":"Point","coordinates":[-105.10999999999996,39.620000000000061]},"properties":{"OBJECTID":204,"Brand":"Starbucks","Store_Number":"6528-3140","Store_Name":"Belleview & Kipling","Ownership_Type":"Company Owned","Street_Address":"9914 W. Belleview Ave, Unit A-1","City":"Littleton","State_Province":"CO","Country":"US","Postcode":"801232198","Phone_Number":"303-904-4206","Timezone":"GMT-07:00 America/Denver","Longitude":-105.11,"Latitude":39.619999999999997}},{"type":"Feature","id":205,"geometry":{"type":"Point","coordinates":[-105.12999999999994,39.580000000000041]},"properties":{"OBJECTID":205,"Brand":"Starbucks","Store_Number":"75006-75246","Store_Name":"King Soopers-Littleton #25","Ownership_Type":"Licensed","Street_Address":"11747 W Ken Caryl Ave","City":"Littleton","State_Province":"CO","Country":"US","Postcode":"801273700","Phone_Number":"303-933-5100","Timezone":"GMT-07:00 America/Denver","Longitude":-105.13,"Latitude":39.579999999999998}},{"type":"Feature","id":206,"geometry":{"type":"Point","coordinates":[-104.93999999999994,39.540000000000077]},"properties":{"OBJECTID":206,"Brand":"Starbucks","Store_Number":"79283-82266","Store_Name":"King Soopers - Littleton #27","Ownership_Type":"Licensed","Street_Address":"9551 S University","City":"Littleton","State_Province":"CO","Country":"US","Postcode":"80126","Phone_Number":"303-470-3216","Timezone":"GMT-07:00 America/Denver","Longitude":-104.94,"Latitude":39.539999999999999}},{"type":"Feature","id":207,"geometry":{"type":"Point","coordinates":[-105.09999999999997,39.61000000000007]},"properties":{"OBJECTID":207,"Brand":"Starbucks","Store_Number":"72648-48399","Store_Name":"Super Target Littleton ST-1776","Ownership_Type":"Licensed","Street_Address":"9390 W Cross Dr","City":"Littleton","State_Province":"CO","Country":"US","Postcode":"801232202","Phone_Number":"720-922-1475","Timezone":"GMT-07:00 America/Denver","Longitude":-105.09999999999999,"Latitude":39.609999999999999}},{"type":"Feature","id":208,"geometry":{"type":"Point","coordinates":[-105.12999999999994,39.580000000000041]},"properties":{"OBJECTID":208,"Brand":"Starbucks","Store_Number":"74479-84400","Store_Name":"Safeway-Littleton #1599","Ownership_Type":"Licensed","Street_Address":"12442 W Ken Caryl Ave","City":"Littleton","State_Province":"CO","Country":"US","Postcode":"801273745","Phone_Number":"303-978-1859","Timezone":"GMT-07:00 America/Denver","Longitude":-105.13,"Latitude":39.579999999999998}},{"type":"Feature","id":209,"geometry":{"type":"Point","coordinates":[-104.87999999999994,39.540000000000077]},"properties":{"OBJECTID":209,"Brand":"Starbucks","Store_Number":"27851-193845","Store_Name":"SEC Lincoln & Yosemite - Lone Tree","Ownership_Type":"Company Owned","Street_Address":"9998 Commons St., Park Meadows","City":"Lone Tree","State_Province":"CO","Country":"US","Postcode":"80124","Phone_Number":"(720) 467-4703","Timezone":"GMT-07:00 America/Denver","Longitude":-104.88,"Latitude":39.539999999999999}},{"type":"Feature","id":210,"geometry":{"type":"Point","coordinates":[-104.87999999999994,39.560000000000059]},"properties":{"OBJECTID":210,"Brand":"Teavana","Store_Number":"28594-249822","Store_Name":"Teavana - Park Meadows","Ownership_Type":"Company Owned","Street_Address":"8505 PARK MEADOWS CENTER DR, #2075","City":"LONE TREE","State_Province":"CO","Country":"US","Postcode":"80124","Phone_Number":"303-790-7648","Timezone":"GMT-07:00 America/Denver","Longitude":-104.88,"Latitude":39.560000000000002}},{"type":"Feature","id":211,"geometry":{"type":"Point","coordinates":[-104.87999999999994,39.550000000000068]},"properties":{"OBJECTID":211,"Brand":"Starbucks","Store_Number":"10262-99008","Store_Name":"Yosemite & Maximus - Lone Tree","Ownership_Type":"Company Owned","Street_Address":"9222 Park Meadows Drive","City":"Lone Tree","State_Province":"CO","Country":"US","Postcode":"801246711","Phone_Number":"303-799-8061","Timezone":"GMT-07:00 America/Denver","Longitude":-104.88,"Latitude":39.549999999999997}},{"type":"Feature","id":212,"geometry":{"type":"Point","coordinates":[-104.87999999999994,39.53000000000003]},"properties":{"OBJECTID":212,"Brand":"Starbucks","Store_Number":"76472-97585","Store_Name":"Super Target Lone Tree ST-2023","Ownership_Type":"Licensed","Street_Address":"10001 Commons St","City":"Lone Tree","State_Province":"CO","Country":"US","Postcode":"801245547","Phone_Number":"303-209-1851","Timezone":"GMT-07:00 America/Denver","Longitude":-104.88,"Latitude":39.530000000000001}},{"type":"Feature","id":213,"geometry":{"type":"Point","coordinates":[-104.87999999999994,39.560000000000059]},"properties":{"OBJECTID":213,"Brand":"Starbucks","Store_Number":"22526-215010","Store_Name":"Park Meadows - The Vistas","Ownership_Type":"Company Owned","Street_Address":"8433 Park Meadows Center Dr, Space D-147, Suite 147","City":"Lone Tree","State_Province":"CO","Country":"US","Postcode":"80124","Phone_Number":"3037922245","Timezone":"GMT-07:00 America/Denver","Longitude":-104.88,"Latitude":39.560000000000002}},{"type":"Feature","id":214,"geometry":{"type":"Point","coordinates":[-104.97999999999996,39.910000000000025]},"properties":{"OBJECTID":214,"Brand":"Starbucks","Store_Number":"50210-271889","Store_Name":"Albertsons - Northglenn #881","Ownership_Type":"Licensed","Street_Address":"500 East 120th Ave","City":"Northglenn","State_Province":"CO","Country":"US","Postcode":"80233","Phone_Number":null,"Timezone":"GMT-07:00 America/Denver","Longitude":-104.98,"Latitude":39.909999999999997}},{"type":"Feature","id":215,"geometry":{"type":"Point","coordinates":[-104.98999999999995,39.880000000000052]},"properties":{"OBJECTID":215,"Brand":"Starbucks","Store_Number":"17733-171004","Store_Name":"104th & Bannock, Northglenn","Ownership_Type":"Company Owned","Street_Address":"200 W. 104th Ave.","City":"Northglenn","State_Province":"CO","Country":"US","Postcode":"80234","Phone_Number":"3032555628","Timezone":"GMT-07:00 America/Denver","Longitude":-104.98999999999999,"Latitude":39.880000000000003}},{"type":"Feature","id":216,"geometry":{"type":"Point","coordinates":[-104.76999999999998,39.520000000000039]},"properties":{"OBJECTID":216,"Brand":"Starbucks","Store_Number":"74120-17634","Store_Name":"Safeway-Parker #1446","Ownership_Type":"Licensed","Street_Address":"11051 S Parker Road, Parker Pavilions","City":"Parker","State_Province":"CO","Country":"US","Postcode":"801347441","Phone_Number":"303-840-1604","Timezone":"GMT-07:00 America/Denver","Longitude":-104.77,"Latitude":39.520000000000003}},{"type":"Feature","id":217,"geometry":{"type":"Point","coordinates":[-104.78999999999996,39.540000000000077]},"properties":{"OBJECTID":217,"Brand":"Starbucks","Store_Number":"10866-103227","Store_Name":"E Lincoln Ave & S Jordan Rd","Ownership_Type":"Company Owned","Street_Address":"17051 Lincoln Ave.,","City":"Parker","State_Province":"CO","Country":"US","Postcode":"801343147","Phone_Number":"303-841-1545","Timezone":"GMT-07:00 America/Denver","Longitude":-104.79000000000001,"Latitude":39.539999999999999}},{"type":"Feature","id":218,"geometry":{"type":"Point","coordinates":[-104.77999999999997,39.560000000000059]},"properties":{"OBJECTID":218,"Brand":"Starbucks","Store_Number":"28271-233545","Store_Name":"King Soopers - Parker #126","Ownership_Type":"Licensed","Street_Address":"17761 Cottonwood Dr, Parker Gateway Retail Center","City":"Parker","State_Province":"CO","Country":"US","Postcode":"80134","Phone_Number":"303-334-9540","Timezone":"GMT-07:00 America/Denver","Longitude":-104.78,"Latitude":39.560000000000002}},{"type":"Feature","id":219,"geometry":{"type":"Point","coordinates":[-104.76999999999998,39.540000000000077]},"properties":{"OBJECTID":219,"Brand":"Starbucks","Store_Number":"13339-105636","Store_Name":"Parker & Lincoln - Parker","Ownership_Type":"Company Owned","Street_Address":"9700 S. Parker Road, Suite100","City":"Parker","State_Province":"CO","Country":"US","Postcode":"801389004","Phone_Number":"303-840-0306","Timezone":"GMT-07:00 America/Denver","Longitude":-104.77,"Latitude":39.539999999999999}},{"type":"Feature","id":220,"geometry":{"type":"Point","coordinates":[-104.78999999999996,39.53000000000003]},"properties":{"OBJECTID":220,"Brand":"Starbucks","Store_Number":"73955-93848","Store_Name":"King Soopers-Parker #88","Ownership_Type":"Licensed","Street_Address":"17031 Lincoln Ave","City":"Parker","State_Province":"CO","Country":"US","Postcode":"801343161","Phone_Number":"720-851-7750","Timezone":"GMT-07:00 America/Denver","Longitude":-104.79000000000001,"Latitude":39.530000000000001}},{"type":"Feature","id":221,"geometry":{"type":"Point","coordinates":[-105.00999999999999,39.650000000000034]},"properties":{"OBJECTID":221,"Brand":"Starbucks","Store_Number":"76895-121624","Store_Name":"Super Target Sheridan ST-2261","Ownership_Type":"Licensed","Street_Address":"3650 Riverpoint Pkwy","City":"Sheridan","State_Province":"CO","Country":"US","Postcode":"80110","Phone_Number":"(303) 974-6661","Timezone":"GMT-07:00 America/Denver","Longitude":-105.01000000000001,"Latitude":39.649999999999999}},{"type":"Feature","id":222,"geometry":{"type":"Point","coordinates":[-105.14999999999998,39.930000000000064]},"properties":{"OBJECTID":222,"Brand":"Starbucks","Store_Number":"74480-82282","Store_Name":"Safeway-Superior #1656","Ownership_Type":"Licensed","Street_Address":"1601 Coalton Rd","City":"Superior","State_Province":"CO","Country":"US","Postcode":"800274610","Phone_Number":"303-543-1153","Timezone":"GMT-07:00 America/Denver","Longitude":-105.15000000000001,"Latitude":39.93}},{"type":"Feature","id":223,"geometry":{"type":"Point","coordinates":[-105.14999999999998,39.930000000000064]},"properties":{"OBJECTID":223,"Brand":"Starbucks","Store_Number":"10867-99865","Store_Name":"Coalton & Rock Creek- Superior","Ownership_Type":"Company Owned","Street_Address":"2800 Rock Creek Circle, A1","City":"Superior","State_Province":"CO","Country":"US","Postcode":"800274673","Phone_Number":"303-494-5673","Timezone":"GMT-07:00 America/Denver","Longitude":-105.15000000000001,"Latitude":39.93}},{"type":"Feature","id":224,"geometry":{"type":"Point","coordinates":[-104.93999999999994,39.910000000000025]},"properties":{"OBJECTID":224,"Brand":"Starbucks","Store_Number":"6945-86206","Store_Name":"120th & Colorado-Thornton","Ownership_Type":"Company Owned","Street_Address":"3894 E. 120th Avenue","City":"Thornton","State_Province":"CO","Country":"US","Postcode":"80241","Phone_Number":"303-280-1580","Timezone":"GMT-07:00 America/Denver","Longitude":-104.94,"Latitude":39.909999999999997}},{"type":"Feature","id":225,"geometry":{"type":"Point","coordinates":[-104.93999999999994,39.910000000000025]},"properties":{"OBJECTID":225,"Brand":"Starbucks","Store_Number":"73874-110989","Store_Name":"King Soopers-Thornton #68","Ownership_Type":"Licensed","Street_Address":"3801 East 120 Ave","City":"Thornton","State_Province":"CO","Country":"US","Postcode":"80241","Phone_Number":"303-451-6955","Timezone":"GMT-07:00 America/Denver","Longitude":-104.94,"Latitude":39.909999999999997}},{"type":"Feature","id":226,"geometry":{"type":"Point","coordinates":[-104.93999999999994,39.940000000000055]},"properties":{"OBJECTID":226,"Brand":"Starbucks","Store_Number":"18537-92947","Store_Name":"King Soopers-Thornton #101","Ownership_Type":"Licensed","Street_Address":"13700 Colorado Blvd","City":"Thornton","State_Province":"CO","Country":"US","Postcode":"80241","Phone_Number":"720-872-1630","Timezone":"GMT-07:00 America/Denver","Longitude":-104.94,"Latitude":39.939999999999998}},{"type":"Feature","id":227,"geometry":{"type":"Point","coordinates":[-104.93999999999994,39.940000000000055]},"properties":{"OBJECTID":227,"Brand":"Starbucks","Store_Number":"11479-100284","Store_Name":"136th & Colorado- Thornton","Ownership_Type":"Company Owned","Street_Address":"13671 Colorado Blvd, Suite A","City":"Thornton","State_Province":"CO","Country":"US","Postcode":"80233","Phone_Number":"303-451-9492","Timezone":"GMT-07:00 America/Denver","Longitude":-104.94,"Latitude":39.939999999999998}},{"type":"Feature","id":228,"geometry":{"type":"Point","coordinates":[-104.97999999999996,39.85000000000008]},"properties":{"OBJECTID":228,"Brand":"Starbucks","Store_Number":"9599-97632","Store_Name":"84th and Pearl-Thornton","Ownership_Type":"Company Owned","Street_Address":"8410 Pearl Street","City":"Thornton","State_Province":"CO","Country":"US","Postcode":"802294805","Phone_Number":"303-287-6812","Timezone":"GMT-07:00 America/Denver","Longitude":-104.98,"Latitude":39.850000000000001}},{"type":"Feature","id":229,"geometry":{"type":"Point","coordinates":[-104.96999999999997,39.920000000000073]},"properties":{"OBJECTID":229,"Brand":"Starbucks","Store_Number":"72647-48379","Store_Name":"Super Target Thornton ST-1372","Ownership_Type":"Licensed","Street_Address":"1001 E 120th Ave","City":"Thornton","State_Province":"CO","Country":"US","Postcode":"802335711","Phone_Number":"303-280-0400","Timezone":"GMT-07:00 America/Denver","Longitude":-104.97,"Latitude":39.920000000000002}},{"type":"Feature","id":230,"geometry":{"type":"Point","coordinates":[-104.98999999999995,39.910000000000025]},"properties":{"OBJECTID":230,"Brand":"Starbucks","Store_Number":"9554-97218","Store_Name":"I-25 & 120th-Thornton","Ownership_Type":"Company Owned","Street_Address":"45 East 120th","City":"Thornton","State_Province":"CO","Country":"US","Postcode":"80241","Phone_Number":"303-451-2314","Timezone":"GMT-07:00 America/Denver","Longitude":-104.98999999999999,"Latitude":39.909999999999997}},{"type":"Feature","id":231,"geometry":{"type":"Point","coordinates":[-104.93999999999994,39.880000000000052]},"properties":{"OBJECTID":231,"Brand":"Starbucks","Store_Number":"73172-21492","Store_Name":"Safeway - Thornton #892","Ownership_Type":"Licensed","Street_Address":"3840 E 104th Ave","City":"Thornton","State_Province":"CO","Country":"US","Postcode":"802334436","Phone_Number":"303-255-0596","Timezone":"GMT-07:00 America/Denver","Longitude":-104.94,"Latitude":39.880000000000003}},{"type":"Feature","id":232,"geometry":{"type":"Point","coordinates":[-104.99999999999994,39.86000000000007]},"properties":{"OBJECTID":232,"Brand":"Starbucks","Store_Number":"74407-85001","Store_Name":"Safeway-Thornton #1873","Ownership_Type":"Licensed","Street_Address":"811 Thornton Parkway","City":"Thornton","State_Province":"CO","Country":"US","Postcode":"802293681","Phone_Number":"303-280-2245","Timezone":"GMT-07:00 America/Denver","Longitude":-105,"Latitude":39.859999999999999}},{"type":"Feature","id":233,"geometry":{"type":"Point","coordinates":[-104.97999999999996,39.890000000000043]},"properties":{"OBJECTID":233,"Brand":"Starbucks","Store_Number":"21637-212584","Store_Name":"King Soopers Thornton #24","Ownership_Type":"Licensed","Street_Address":"750 E 104th Ave","City":"Thornton","State_Province":"CO","Country":"US","Postcode":"80229","Phone_Number":"303-452-8657","Timezone":"GMT-07:00 America/Denver","Longitude":-104.98,"Latitude":39.890000000000001}},{"type":"Feature","id":234,"geometry":{"type":"Point","coordinates":[-105.04999999999995,39.940000000000055]},"properties":{"OBJECTID":234,"Brand":"Starbucks","Store_Number":"76717-103835","Store_Name":"Super Target Westminster ST - 2197","Ownership_Type":"Licensed","Street_Address":"14451 Orchard Pkwy, Westminster City Center Marketplace","City":"Westminster","State_Province":"CO","Country":"US","Postcode":"800239174","Phone_Number":"303-209-0163","Timezone":"GMT-07:00 America/Denver","Longitude":-105.05,"Latitude":39.939999999999998}},{"type":"Feature","id":235,"geometry":{"type":"Point","coordinates":[-105.04999999999995,39.870000000000061]},"properties":{"OBJECTID":235,"Brand":"Starbucks","Store_Number":"6223-627","Store_Name":"Westminster B&N","Ownership_Type":"Company Owned","Street_Address":"9372 Sheridan Boulevard","City":"Westminster","State_Province":"CO","Country":"US","Postcode":"800316304","Phone_Number":"(303) 657-3282","Timezone":"GMT-07:00 America/Denver","Longitude":-105.05,"Latitude":39.869999999999997}},{"type":"Feature","id":236,"geometry":{"type":"Point","coordinates":[-104.99999999999994,39.910000000000025]},"properties":{"OBJECTID":236,"Brand":"Starbucks","Store_Number":"5647-2441","Store_Name":"120th & Huron","Ownership_Type":"Company Owned","Street_Address":"1171 West 120th, Suite B","City":"Westminster","State_Province":"CO","Country":"US","Postcode":"802342743","Phone_Number":"720-872-0310","Timezone":"GMT-07:00 America/Denver","Longitude":-105,"Latitude":39.909999999999997}},{"type":"Feature","id":237,"geometry":{"type":"Point","coordinates":[-104.98999999999995,39.940000000000055]},"properties":{"OBJECTID":237,"Brand":"Starbucks","Store_Number":"10724-99651","Store_Name":"136th & I-25- Westminster","Ownership_Type":"Company Owned","Street_Address":"13640 Orchard Parkway, Suite 300","City":"Westminster","State_Province":"CO","Country":"US","Postcode":"800239255","Phone_Number":"303-255-2384","Timezone":"GMT-07:00 America/Denver","Longitude":-104.98999999999999,"Latitude":39.939999999999998}},{"type":"Feature","id":238,"geometry":{"type":"Point","coordinates":[-105.04999999999995,39.830000000000041]},"properties":{"OBJECTID":238,"Brand":"Starbucks","Store_Number":"10437-99160","Store_Name":"72nd & Sheridan- Westminster","Ownership_Type":"Company Owned","Street_Address":"7221 Sheridan Blvd, Suite A","City":"Westminster","State_Province":"CO","Country":"US","Postcode":"800033313","Phone_Number":"303-428-4455","Timezone":"GMT-07:00 America/Denver","Longitude":-105.05,"Latitude":39.829999999999998}},{"type":"Feature","id":239,"geometry":{"type":"Point","coordinates":[-105.07999999999998,39.840000000000032]},"properties":{"OBJECTID":239,"Brand":"Starbucks","Store_Number":"25969-242724","Store_Name":"King Sooper Arvada # 55","Ownership_Type":"Licensed","Street_Address":"9983 Wadsworth Pkwy","City":"Westminster","State_Province":"CO","Country":"US","Postcode":"80021","Phone_Number":"303-424-0670","Timezone":"GMT-07:00 America/Denver","Longitude":-105.08,"Latitude":39.840000000000003}},{"type":"Feature","id":240,"geometry":{"type":"Point","coordinates":[-105.02999999999997,39.830000000000041]},"properties":{"OBJECTID":240,"Brand":"Starbucks","Store_Number":"6879-83646","Store_Name":"73rd & Federal-Westminster","Ownership_Type":"Company Owned","Street_Address":"7347 N Federal Blvd","City":"Westminster","State_Province":"CO","Country":"US","Postcode":"800304943","Phone_Number":"303-412-7011","Timezone":"GMT-07:00 America/Denver","Longitude":-105.03,"Latitude":39.829999999999998}},{"type":"Feature","id":241,"geometry":{"type":"Point","coordinates":[-105.02999999999997,39.880000000000052]},"properties":{"OBJECTID":241,"Brand":"Starbucks","Store_Number":"19224-192844","Store_Name":"King Soopers-Westminster, CO #62","Ownership_Type":"Licensed","Street_Address":"10351 Federal Blvd","City":"Westminster","State_Province":"CO","Country":"US","Postcode":"802607431","Phone_Number":"303-404-3342","Timezone":"GMT-07:00 America/Denver","Longitude":-105.03,"Latitude":39.880000000000003}},{"type":"Feature","id":242,"geometry":{"type":"Point","coordinates":[-105.04999999999995,39.870000000000061]},"properties":{"OBJECTID":242,"Brand":"Starbucks","Store_Number":"29643-254412","Store_Name":"92nd and Sheridan","Ownership_Type":"Company Owned","Street_Address":"9379 Sheridan Blvd.","City":"Westminster","State_Province":"CO","Country":"US","Postcode":"80031","Phone_Number":"7204988903","Timezone":"GMT-07:00 America/Denver","Longitude":-105.05,"Latitude":39.869999999999997}},{"type":"Feature","id":243,"geometry":{"type":"Point","coordinates":[-105.04999999999995,39.910000000000025]},"properties":{"OBJECTID":243,"Brand":"Starbucks","Store_Number":"5358-911","Store_Name":"120th & Sheridan","Ownership_Type":"Company Owned","Street_Address":"5180 B West 120th Avenue, Northpark Plaza","City":"Westminster","State_Province":"CO","Country":"US","Postcode":"800203332","Phone_Number":"(303) 465-9964","Timezone":"GMT-07:00 America/Denver","Longitude":-105.05,"Latitude":39.909999999999997}},{"type":"Feature","id":244,"geometry":{"type":"Point","coordinates":[-105.02999999999997,39.880000000000052]},"properties":{"OBJECTID":244,"Brand":"Starbucks","Store_Number":"5806-15693","Store_Name":"104th Ave. & Federal Blvd.","Ownership_Type":"Company Owned","Street_Address":"10339 N Federal Boulevard, #100","City":"Westminster","State_Province":"CO","Country":"US","Postcode":"80031","Phone_Number":"303-438-1300","Timezone":"GMT-07:00 America/Denver","Longitude":-105.03,"Latitude":39.880000000000003}},{"type":"Feature","id":245,"geometry":{"type":"Point","coordinates":[-105.09999999999997,39.880000000000052]},"properties":{"OBJECTID":245,"Brand":"Starbucks","Store_Number":"11780-106321","Store_Name":"101st & Wadsworth, Westminster","Ownership_Type":"Company Owned","Street_Address":"10111 Wadsworth Parkway","City":"Westminster","State_Province":"CO","Country":"US","Postcode":"800213804","Phone_Number":"303-466-3680","Timezone":"GMT-07:00 America/Denver","Longitude":-105.09999999999999,"Latitude":39.880000000000003}},{"type":"Feature","id":246,"geometry":{"type":"Point","coordinates":[-105.04999999999995,39.770000000000039]},"properties":{"OBJECTID":246,"Brand":"Starbucks","Store_Number":"17740-94024","Store_Name":"King Soopers-Denver #57","Ownership_Type":"Licensed","Street_Address":"5301 W 38th Ave","City":"Wheat Ridge","State_Province":"CO","Country":"US","Postcode":"802127249","Phone_Number":"303-425-7356","Timezone":"GMT-07:00 America/Denver","Longitude":-105.05,"Latitude":39.770000000000003}},{"type":"Feature","id":247,"geometry":{"type":"Point","coordinates":[-105.13999999999999,39.760000000000048]},"properties":{"OBJECTID":247,"Brand":"Starbucks","Store_Number":"72859-83228","Store_Name":"King Soopers-Wheatridge #20","Ownership_Type":"Licensed","Street_Address":"3400 Yongfield","City":"Wheat Ridge","State_Province":"CO","Country":"US","Postcode":"800335245","Phone_Number":"303-238-6486","Timezone":"GMT-07:00 America/Denver","Longitude":-105.14,"Latitude":39.759999999999998}},{"type":"Feature","id":248,"geometry":{"type":"Point","coordinates":[-105.10999999999996,39.770000000000039]},"properties":{"OBJECTID":248,"Brand":"Starbucks","Store_Number":"6905-231206","Store_Name":"38th and Kipling","Ownership_Type":"Company Owned","Street_Address":"3795 Kipling St.","City":"Wheat Ridge","State_Province":"CO","Country":"US","Postcode":"80033","Phone_Number":"3039406544","Timezone":"GMT-07:00 America/Denver","Longitude":-105.11,"Latitude":39.770000000000003}},{"type":"Feature","id":249,"geometry":{"type":"Point","coordinates":[-105.07999999999998,39.770000000000039]},"properties":{"OBJECTID":249,"Brand":"Starbucks","Store_Number":"74371-82287","Store_Name":"Safeway-Wheat Ridge #1479","Ownership_Type":"Licensed","Street_Address":"3900 Wadsworth","City":"Wheat Ridge","State_Province":"CO","Country":"US","Postcode":"800334615","Phone_Number":"303-456-2670","Timezone":"GMT-07:00 America/Denver","Longitude":-105.08,"Latitude":39.770000000000003}},{"type":"Feature","id":250,"geometry":{"type":"Point","coordinates":[-105.10999999999996,39.790000000000077]},"properties":{"OBJECTID":250,"Brand":"Starbucks","Store_Number":"13822-108298","Store_Name":"50th and Kipling-Wheatridge, CO","Ownership_Type":"Company Owned","Street_Address":"4975 Kipling St","City":"Wheat Ridge","State_Province":"CO","Country":"US","Postcode":"800332340","Phone_Number":"303-940-1138","Timezone":"GMT-07:00 America/Denver","Longitude":-105.11,"Latitude":39.789999999999999}},{"type":"Feature","id":251,"geometry":{"type":"Point","coordinates":[-105.13999999999999,39.760000000000048]},"properties":{"OBJECTID":251,"Brand":"Starbucks","Store_Number":"251-196","Store_Name":"Applewood Village","Ownership_Type":"Company Owned","Street_Address":"3450 Youngfield","City":"Wheat Ridge","State_Province":"CO","Country":"US","Postcode":"800335282","Phone_Number":"(303) 274-0370","Timezone":"GMT-07:00 America/Denver","Longitude":-105.14,"Latitude":39.759999999999998}},{"type":"Feature","id":252,"geometry":{"type":"Point","coordinates":[-105.10999999999996,39.790000000000077]},"properties":{"OBJECTID":252,"Brand":"Starbucks","Store_Number":"76471-97424","Store_Name":"Super Target Arvada ST-2021","Ownership_Type":"Licensed","Street_Address":"5071 Kipling St","City":"Wheat Ridge","State_Province":"CO","Country":"US","Postcode":"800332303","Phone_Number":"303-209-1848","Timezone":"GMT-07:00 America/Denver","Longitude":-105.11,"Latitude":39.789999999999999}}]}